Unnamed: 0,geonameid,name,asciiname,latitude,longitude,feature_class,feature_code,country_code,cc2,admin1_code,admin2_code,admin3_code,admin4_code,population,elevation,dem,timezone,modification_date,othername0,othername1,othername2,othername3,othername4,othername5,othername6,othername7,othername8,othername9,othername10,othername11,othername12,othername13,othername14,othername15,othername16,othername17,othername18,othername19,othername20,othername21,othername22,othername23,othername24,othername25,othername26,othername27,othername28,othername29,othername30,othername31,othername32,othername33,othername34,othername35,othername36,othername37,othername38,othername39,othername40,othername41,othername42,othername43,othername44,othername45,othername46,othername47,othername48,othername49,othername50,othername51,othername52,othername53,othername54,othername55,othername56,othername57,othername58,othername59,othername60,othername61,othername62,othername63,othername64,othername65,othername66
50007,3468012,Rio Camaquã,Rio Camaqua,-31.28333,-51.78333,H,STM,BR,,23.0,,,,0,,-9999,America/Sao_Paulo,2021-08-09,Camaqua River,Camaquã River,Rio Camaqua,Rio Camaqua Chico,Rio Camaquam,Rio Camaquan,Rio Camaquã,Rio Camaquã Chico,,,,,,,,,,,,,,,,,,,,,,,,,,,,,,,,,,,,,,,,,,,,,,,,,,,,,,,,,,,
50100,3468105,Recifes Calções de Fora,Recifes Calcoes de Fora,-17.3,-39.21667,H,RF,BR,,1.0,,,,0,,-9999,America/Bahia,2012-01-19,Recife Calcoes de Fora,Recife Calções de Fora,Recifes Calcoes de Fora,Recifes Calções de Fora,Recifes dos Calcoes de Fora,Recifes dos Calções de Fora,,,,,,,,,,,,,,,,,,,,,,,,,,,,,,,,,,,,,,,,,,,,,,,,,,,,,,,,,,,,,
50134,3468139,Ponta do Caju,Ponta do Caju,-22.86667,-43.2,T,PT,BR,,21.0,,,,0,,-9999,America/Sao_Paulo,2012-12-05,Ponta do Caju,,,,,,,,,,,,,,,,,,,,,,,,,,,,,,,,,,,,,,,,,,,,,,,,,,,,,,,,,,,,,,,,,,
50135,3468140,Ilha do Caju,Ilha do Caju,-22.87533,-43.1214,T,ISL,BR,,21.0,3303302.0,,,0,,8,America/Sao_Paulo,2017-12-22,Caju Island,Ilha do Caju,,,,,,,,,,,,,,,,,,,,,,,,,,,,,,,,,,,,,,,,,,,,,,,,,,,,,,,,,,,,,,,,,
50175,3468180,Ponta de Caiubá,Ponta de Caiuba,-25.86667,-48.53333,T,PT,BR,,18.0,,,,0,,-9999,America/Sao_Paulo,2020-06-11,Ponta Caioba,Ponta Caiobá,Ponta Caiova,Ponta de Caiuba,Ponta de Caiubá,,,,,,,,,,,,,,,,,,,,,,,,,,,,,,,,,,,,,,,,,,,,,,,,,,,,,,,,,,,,,,
50194,3468199,Ilha Cairuçu das Pedras,Ilha Cairucu das Pedras,-23.34965,-44.56865,T,ISL,BR,,21.0,,,,0,,31,America/Sao_Paulo,2018-11-06,Ilha Cairucu,Ilha Cairucu das Pedras,Ilha Cairuçu das Pedras,Ilha Cairuçú,Ilha de Cairocu,Ilha de Cairoçu,,,,,,,,,,,,,,,,,,,,,,,,,,,,,,,,,,,,,,,,,,,,,,,,,,,,,,,,,,,,,
50201,3468206,Ilha Caiobá,Ilha Caioba,-25.86667,-48.55,T,ISL,BR,,18.0,,,,0,,-9999,America/Sao_Paulo,2020-06-11,Ilha Caioba,Ilha Caiobá,Ilha Caiova,Ilha Cayoba,Ilha Cayobá,,,,,,,,,,,,,,,,,,,,,,,,,,,,,,,,,,,,,,,,,,,,,,,,,,,,,,,,,,,,,,
50212,3468217,Ilha da Caieira,Ilha da Caieira,-22.93333,-44.33333,T,ISL,BR,,21.0,,,,0,,4,America/Sao_Paulo,2013-03-05,Ilha da Caieira,,,,,,,,,,,,,,,,,,,,,,,,,,,,,,,,,,,,,,,,,,,,,,,,,,,,,,,,,,,,,,,,,,
50253,3468258,Arquipélago das Cagarras,Arquipelago das Cagarras,-23.0293,-43.19369,T,ISLS,BR,,21.0,,,,0,,-9999,America/Sao_Paulo,2020-06-11,Arquipelago das Cagarras,Arquipélago das Cagarras,Ilhas Cagarras,,,,,,,,,,,,,,,,,,,,,,,,,,,,,,,,,,,,,,,,,,,,,,,,,,,,,,,,,,,,,,,,
50254,3468259,Ilhota Cagarra,Ilhota Cagarra,-23.02898,-43.19157,T,ISL,BR,,21.0,,,,0,,5,America/Sao_Paulo,2012-01-19,Filhote,Ilhota Cagarra,,,,,,,,,,,,,,,,,,,,,,,,,,,,,,,,,,,,,,,,,,,,,,,,,,,,,,,,,,,,,,,,,
50255,3468260,Ilha Cagarra,Ilha Cagarra,-23.02631,-43.19205,T,ISL,BR,,21.0,,,,0,89.0,42,America/Sao_Paulo,2019-02-21,Ilha Cagarra,Ilha Cagarras,Ilha da Cagarra,,,,,,,,,,,,,,,,,,,,,,,,,,,,,,,,,,,,,,,,,,,,,,,,,,,,,,,,,,,,,,,,
50278,3468283,Ponta da Cafua,Ponta da Cafua,-23.1488,-44.11466,T,PT,BR,,21.0,3300100.0,,,0,,65,America/Sao_Paulo,2014-04-21,Ponta da Cafua,,,,,,,,,,,,,,,,,,,,,,,,,,,,,,,,,,,,,,,,,,,,,,,,,,,,,,,,,,,,,,,,,,
50480,3468485,Ponta da Cachoeira,Ponta da Cachoeira,-20.50986,-29.34414,T,PT,BR,,8.0,3205309.0,,,0,,-9999,America/Noronha,2017-12-26,Ponta da Cacheira,Ponta da Cachoeira,,,,,,,,,,,,,,,,,,,,,,,,,,,,,,,,,,,,,,,,,,,,,,,,,,,,,,,,,,,,,,,,,
50559,3468564,Lagoa da Caçanje,Lagoa da Cacanje,-14.0,-38.91667,H,LGN,BR,,5.0,,,,0,,-9999,America/Bahia,1993-12-17,,,,,,,,,,,,,,,,,,,,,,,,,,,,,,,,,,,,,,,,,,,,,,,,,,,,,,,,,,,,,,,,,,,
50592,3468597,Ilhote das Cabras,Ilhote das Cabras,-23.73333,-45.03333,T,ISL,BR,,27.0,,,,0,,-9999,America/Sao_Paulo,2013-03-05,Ilhote das Cabras,,,,,,,,,,,,,,,,,,,,,,,,,,,,,,,,,,,,,,,,,,,,,,,,,,,,,,,,,,,,,,,,,,
50593,3468598,Ilha das Cabras,Ilha das Cabras,-23.51667,-45.03333,T,ISL,BR,,27.0,,,,0,,-9999,America/Sao_Paulo,2013-03-05,Ilha das Cabras,,,,,,,,,,,,,,,,,,,,,,,,,,,,,,,,,,,,,,,,,,,,,,,,,,,,,,,,,,,,,,,,,,
50596,3468601,Baía Cabrália,Baia Cabralia,-16.3,-39.01667,H,BAY,BR,,5.0,,,,0,,-9999,America/Bahia,2020-06-11,Bahia Santa Cruz,Baia Cabralia,Baía Cabrália,,,,,,,,,,,,,,,,,,,,,,,,,,,,,,,,,,,,,,,,,,,,,,,,,,,,,,,,,,,,,,,,
50609,3468614,Ilha do Cabo Frio,Ilha do Cabo Frio,-22.99332,-41.98927,T,ISL,BR,,21.0,3300258.0,,,0,,267,America/Sao_Paulo,2017-12-20,Ilha do Cabo Frio,,,,,,,,,,,,,,,,,,,,,,,,,,,,,,,,,,,,,,,,,,,,,,,,,,,,,,,,,,,,,,,,,,
50626,3468631,Ponta das Cabeçudas,Ponta das Cabecudas,-26.9256,-48.6219,T,PT,BR,,26.0,4208203.0,,,0,,2,America/Sao_Paulo,2017-12-20,,,,,,,,,,,,,,,,,,,,,,,,,,,,,,,,,,,,,,,,,,,,,,,,,,,,,,,,,,,,,,,,,,,
50629,3468634,Ponta Cabeçuda,Ponta Cabecuda,-23.83333,-45.21667,T,PT,BR,,27.0,,,,0,,-9999,America/Sao_Paulo,2012-01-19,Ponta Cabecuda,Ponta Cabeçuda,Punta Cabecudo,Punta Cabeçudo,,,,,,,,,,,,,,,,,,,,,,,,,,,,,,,,,,,,,,,,,,,,,,,,,,,,,,,,,,,,,,,
50686,3468691,Caa-Guaçu,Caa-Guacu,-27.38333,-54.21667,P,PPL,BR,,23.0,4321477.0,,,0,,120,America/Sao_Paulo,2018-07-24,,,,,,,,,,,,,,,,,,,,,,,,,,,,,,,,,,,,,,,,,,,,,,,,,,,,,,,,,,,,,,,,,,,
50688,3468693,Ilha dos Búzìos,Ilha dos Buzios,-23.80309,-45.14128,T,ISL,BR,,27.0,3520400.0,,,0,,271,America/Sao_Paulo,2016-06-15,Ilha dos Buzios,Ilha dos Búzìos,Vittoria Island,,,,,,,,,,,,,,,,,,,,,,,,,,,,,,,,,,,,,,,,,,,,,,,,,,,,,,,,,,,,,,,,
50689,3468694,Ilha dos Búzios,Ilha dos Buzios,-23.05876,-44.41639,T,ISL,BR,,21.0,,,,0,,62,America/Sao_Paulo,2018-11-06,Ilha dos Buzios,Ilha dos Búzios,,,,,,,,,,,,,,,,,,,,,,,,,,,,,,,,,,,,,,,,,,,,,,,,,,,,,,,,,,,,,,,,,
50690,3468695,Cabo Búzios,Cabo Buzios,-22.73333,-41.88333,T,HDLD,BR,,21.0,,,,0,,-9999,America/Sao_Paulo,2012-01-19,Cabo Buzios,Cabo Búzios,Cabo dos Busios,Cabo dos Buzios,Cabo dos Búsios,Cabo dos Búzios,,,,,,,,,,,,,,,,,,,,,,,,,,,,,,,,,,,,,,,,,,,,,,,,,,,,,,,,,,,,,
50702,3468707,Busca-Vida,Busca-Vida,-12.87286,-38.26981,P,PPL,BR,,5.0,2905701.0,,,0,,7,America/Bahia,2018-07-23,Busca-Vida,Busco Vida,,,,,,,,,,,,,,,,,,,,,,,,,,,,,,,,,,,,,,,,,,,,,,,,,,,,,,,,,,,,,,,,,
50800,3468806,Rio Buranhém,Rio Buranhem,-16.45322,-39.05972,H,STM,BR,,5.0,,,,0,,-9999,America/Bahia,2021-07-08,Buranhem River,Buranhém River,Rio Buranhem,Rio Buranhen,Rio Buranhém,,,,,,,,,,,,,,,,,,,,,,,,,,,,,,,,,,,,,,,,,,,,,,,,,,,,,,,,,,,,,,
50895,3468903,Ilha de Brocoió,Ilha de Brocoio,-22.75621,-43.11816,T,ISL,BR,,21.0,,,,0,17.0,0,America/Sao_Paulo,2019-02-21,Ilha de Brocoio,Ilha de Brocoió,Ilha do Brocoio,Ilha do Brocoió,,,,,,,,,,,,,,,,,,,,,,,,,,,,,,,,,,,,,,,,,,,,,,,,,,,,,,,,,,,,,,,
50914,3468922,Ilha do Breu,Ilha do Breu,-22.85,-41.9,T,ISL,BR,,21.0,,,,0,,-9999,America/Sao_Paulo,2012-12-05,Ilha do Breu,,,,,,,,,,,,,,,,,,,,,,,,,,,,,,,,,,,,,,,,,,,,,,,,,,,,,,,,,,,,,,,,,,
51031,3469039,Praia Brava,Praia Brava,-22.83183,-43.1819,T,BCH,BR,,21.0,3304557.0,,,0,,23,America/Sao_Paulo,2016-06-22,Praia Brava,,,,,,,,,,,,,,,,,,,,,,,,,,,,,,,,,,,,,,,,,,,,,,,,,,,,,,,,,,,,,,,,,,
51066,3469074,Rio Branco,Rio Branco,-24.33333,-47.0,H,STM,BR,,27.0,,,,0,,-9999,America/Sao_Paulo,2012-01-19,Rio Branco,Rio Peruhibe,Rio Peruibe,Rio Peruipe,Rio Peruíbe,Rio Peruípe,,,,,,,,,,,,,,,,,,,,,,,,,,,,,,,,,,,,,,,,,,,,,,,,,,,,,,,,,,,,,
51081,3469089,Laje Branca,Laje Branca,-23.13749,-44.34715,T,RK,BR,,21.0,,,,0,,-9999,America/Sao_Paulo,2018-11-06,Laje Branca,,,,,,,,,,,,,,,,,,,,,,,,,,,,,,,,,,,,,,,,,,,,,,,,,,,,,,,,,,,,,,,,,,
51082,3469090,Ilha Branca,Ilha Branca,-22.78333,-41.85,T,ISL,BR,,21.0,,,,0,,-9999,America/Sao_Paulo,2012-12-05,Ilha Branca,,,,,,,,,,,,,,,,,,,,,,,,,,,,,,,,,,,,,,,,,,,,,,,,,,,,,,,,,,,,,,,,,,
51138,3469146,Enseada de Botafogo,Enseada de Botafogo,-22.94689,-43.17289,H,COVE,BR,,21.0,,,,0,,3,America/Sao_Paulo,2012-01-19,Enseada de Botafogo,,,,,,,,,,,,,,,,,,,,,,,,,,,,,,,,,,,,,,,,,,,,,,,,,,,,,,,,,,,,,,,,,,
51172,3469180,Ponta da Boraceia,Ponta da Boraceia,-23.76914,-45.804,T,PT,BR,,27.0,3550704.0,,,0,,20,America/Sao_Paulo,2016-06-15,Ponta da Baraceia,Ponta da Boraceia,Ponta da Borocea,,,,,,,,,,,,,,,,,,,,,,,,,,,,,,,,,,,,,,,,,,,,,,,,,,,,,,,,,,,,,,,,
51199,3469207,Ponta do Valente,Ponta do Valente,-22.77955,-43.15716,T,PT,BR,,21.0,,,,0,,28,America/Sao_Paulo,2019-02-21,Ponta do Boqueirao,Ponta do Boqueirão,Ponta do Valente,,,,,,,,,,,,,,,,,,,,,,,,,,,,,,,,,,,,,,,,,,,,,,,,,,,,,,,,,,,,,,,,
51200,3469208,Morro do Boqueirão,Morro do Boqueirao,-22.77974,-43.15894,T,HLL,BR,,21.0,3304557.0,,,0,50.0,46,America/Sao_Paulo,2012-08-03,Morro do Boqueirao,Morro do Boqueirão,Morro do Boquerao,Morro do Boquerão,,,,,,,,,,,,,,,,,,,,,,,,,,,,,,,,,,,,,,,,,,,,,,,,,,,,,,,,,,,,,,,
51201,3469209,Ilha do Boqueirão,Ilha do Boqueirao,-22.77385,-43.15698,T,ISL,BR,,21.0,3304557.0,,,0,44.0,0,America/Sao_Paulo,2017-12-07,Ilha do Boqueirao,Ilha do Boqueirão,,,,,,,,,,,,,,,,,,,,,,,,,,,,,,,,,,,,,,,,,,,,,,,,,,,,,,,,,,,,,,,,,
51224,3469232,Boqueirão,Boqueirao,-23.0,-42.01667,H,INLT,BR,,21.0,,,,0,,21,America/Sao_Paulo,2012-12-05,Boqueirao,Boqueirão,,,,,,,,,,,,,,,,,,,,,,,,,,,,,,,,,,,,,,,,,,,,,,,,,,,,,,,,,,,,,,,,,
51300,3469308,Corredeiva da Bonita,Corredeiva da Bonita,-25.58333,-54.33333,H,RPDS,BR,,0.0,,,,0,,194,America/Sao_Paulo,1993-12-17,,,,,,,,,,,,,,,,,,,,,,,,,,,,,,,,,,,,,,,,,,,,,,,,,,,,,,,,,,,,,,,,,,,
51335,3469343,Ponta Bonete,Ponta Bonete,-23.93333,-45.33333,T,PT,BR,,27.0,,,,0,,-9999,America/Sao_Paulo,2013-03-05,Ponta Bonete,,,,,,,,,,,,,,,,,,,,,,,,,,,,,,,,,,,,,,,,,,,,,,,,,,,,,,,,,,,,,,,,,,
51336,3469344,Morro do Bonete,Morro do Bonete,-23.91667,-45.36667,T,SPUR,BR,,27.0,,,,0,,420,America/Sao_Paulo,2013-03-05,Morro do Bonete,,,,,,,,,,,,,,,,,,,,,,,,,,,,,,,,,,,,,,,,,,,,,,,,,,,,,,,,,,,,,,,,,,
51464,3469472,Ilha do Bom Jardim,Ilha do Bom Jardim,-23.03652,-43.59457,T,ISL,BR,,21.0,,,,0,,7,America/Sao_Paulo,2012-01-19,Ilha do Bom Jardim,,,,,,,,,,,,,,,,,,,,,,,,,,,,,,,,,,,,,,,,,,,,,,,,,,,,,,,,,,,,,,,,,,
51513,3469521,Ponta de Bombas,Ponta de Bombas,-27.14528,-48.46673,T,PT,BR,,26.0,4202453.0,,,0,,41,America/Sao_Paulo,2018-10-05,Point Bompas,Ponta Bombas,Ponta das Bombas,Ponta de Bombas,,,,,,,,,,,,,,,,,,,,,,,,,,,,,,,,,,,,,,,,,,,,,,,,,,,,,,,,,,,,,,,
51517,3469525,Ilha de Bom Abrigo,Ilha de Bom Abrigo,-25.12143,-47.85765,T,ISL,BR,,27.0,,,,0,,104,America/Sao_Paulo,2016-06-15,,,,,,,,,,,,,,,,,,,,,,,,,,,,,,,,,,,,,,,,,,,,,,,,,,,,,,,,,,,,,,,,,,,
51571,3469579,Ponta do Boi,Ponta do Boi,-23.96801,-45.25161,T,PT,BR,,27.0,,,,0,,1,America/Sao_Paulo,2018-12-06,Boi Point,Ponta do Boi,Ponta do Farol,,,,,,,,,,,,,,,,,,,,,,,,,,,,,,,,,,,,,,,,,,,,,,,,,,,,,,,,,,,,,,,,
51633,3469641,Bôca do Rio,Boca do Rio,-13.03333,-38.65,P,PPL,BR,,5.0,2933208.0,,,0,,-9999,America/Bahia,2018-07-23,,,,,,,,,,,,,,,,,,,,,,,,,,,,,,,,,,,,,,,,,,,,,,,,,,,,,,,,,,,,,,,,,,,
51690,3469698,Morro Buena Vista,Morro Buena Vista,-16.28333,-59.48333,T,HLL,BR,BO,0.0,,,,0,,251,America/Cuiaba,2014-03-08,Morro Buena Vista,Morro da Boa Vista,,,,,,,,,,,,,,,,,,,,,,,,,,,,,,,,,,,,,,,,,,,,,,,,,,,,,,,,,,,,,,,,,
52021,3470029,Praia da Bica,Praia da Bica,-22.81867,-43.19519,T,BCH,BR,,21.0,3304557.0,,,0,,17,America/Sao_Paulo,2016-06-22,Praia da Bica,,,,,,,,,,,,,,,,,,,,,,,,,,,,,,,,,,,,,,,,,,,,,,,,,,,,,,,,,,,,,,,,,,
52055,3470063,Berlinque,Berlinque,-13.1,-38.75,P,PPL,BR,,5.0,2933208.0,,,0,,-9999,America/Bahia,2018-07-23,,,,,,,,,,,,,,,,,,,,,,,,,,,,,,,,,,,,,,,,,,,,,,,,,,,,,,,,,,,,,,,,,,,
52145,3470153,Canal de Belém,Canal de Belem,-30.26667,-51.2,H,CHN,BR,,23.0,,,,0,,-9999,America/Sao_Paulo,2020-07-09,,,,,,,,,,,,,,,,,,,,,,,,,,,,,,,,,,,,,,,,,,,,,,,,,,,,,,,,,,,,,,,,,,,
52158,3470166,Morro Bela Vista,Morro Bela Vista,-22.78648,-43.16806,T,HLL,BR,,21.0,3304557.0,,,0,24.0,79,America/Sao_Paulo,2012-08-03,Morro Bela Vista,,,,,,,,,,,,,,,,,,,,,,,,,,,,,,,,,,,,,,,,,,,,,,,,,,,,,,,,,,,,,,,,,,
52221,3470229,Beira Mar,Beira Mar,-32.16667,-52.11667,P,PPL,BR,,23.0,4315602.0,,,0,,-9999,America/Sao_Paulo,2018-07-24,,,,,,,,,,,,,,,,,,,,,,,,,,,,,,,,,,,,,,,,,,,,,,,,,,,,,,,,,,,,,,,,,,,
52323,3470331,Batalha,Batalha,-22.71667,-43.15,P,PPL,BR,,21.0,3302502.0,,,0,,-9999,America/Sao_Paulo,2018-07-24,Batalha,,,,,,,,,,,,,,,,,,,,,,,,,,,,,,,,,,,,,,,,,,,,,,,,,,,,,,,,,,,,,,,,,,
52681,3470689,Barra do Pote,Barra do Pote,-13.03333,-38.63333,P,PPL,BR,,5.0,2933208.0,,,0,,-9999,America/Bahia,2018-07-23,,,,,,,,,,,,,,,,,,,,,,,,,,,,,,,,,,,,,,,,,,,,,,,,,,,,,,,,,,,,,,,,,,,
52698,3470706,Barra do Gil,Barra do Gil,-13.0,-38.61667,P,PPL,BR,,5.0,2933208.0,,,0,,-9999,America/Bahia,2012-08-03,,,,,,,,,,,,,,,,,,,,,,,,,,,,,,,,,,,,,,,,,,,,,,,,,,,,,,,,,,,,,,,,,,,
52719,3470727,Cordão da Barra de Serinhaém,Cordao da Barra de Serinhaem,-13.75,-38.95,H,RF,BR,,5.0,,,,0,,-9999,America/Bahia,2020-06-11,Barra de Serinhaem,Cordao da Barra da Serinhaem,Cordao da Barra de Serinhaem,Cordao da Barra do Sirinhaem,Cordão da Barra da Serinhaém,Cordão da Barra de Serinhaém,Cordão da Barra do Sirinhaém,,,,,,,,,,,,,,,,,,,,,,,,,,,,,,,,,,,,,,,,,,,,,,,,,,,,,,,,,,,,
52726,3470734,Barra de Caravelas,Barra de Caravelas,-17.73333,-39.18333,P,PPL,BR,,5.0,2906907.0,,,0,,-9999,America/Bahia,2018-07-23,Barra de Caravelas,,,,,,,,,,,,,,,,,,,,,,,,,,,,,,,,,,,,,,,,,,,,,,,,,,,,,,,,,,,,,,,,,,
52776,3470784,Rio da Barra,Rio da Barra,-16.56667,-39.08333,H,STM,BR,,5.0,,,,0,,-9999,America/Bahia,1993-12-17,,,,,,,,,,,,,,,,,,,,,,,,,,,,,,,,,,,,,,,,,,,,,,,,,,,,,,,,,,,,,,,,,,,
52782,3470790,Ponta da Barra,Ponta da Barra,-24.68333,-47.41667,T,PT,BR,,27.0,,,,0,,-9999,America/Sao_Paulo,2018-12-05,Ponta da Barra,,,,,,,,,,,,,,,,,,,,,,,,,,,,,,,,,,,,,,,,,,,,,,,,,,,,,,,,,,,,,,,,,,
52804,3470812,Barra,Barra,-13.58333,-38.9,P,PPL,BR,,5.0,2905404.0,,,0,,-9999,America/Bahia,2018-07-23,,,,,,,,,,,,,,,,,,,,,,,,,,,,,,,,,,,,,,,,,,,,,,,,,,,,,,,,,,,,,,,,,,,
52865,3470873,Arroio Barão de Mauá,Arroio Barao de Maua,-32.55,-52.98333,H,STM,BR,,23.0,,,,0,,0,America/Sao_Paulo,1993-12-17,,,,,,,,,,,,,,,,,,,,,,,,,,,,,,,,,,,,,,,,,,,,,,,,,,,,,,,,,,,,,,,,,,,
52919,3470927,Praia da Bandeira,Praia da Bandeira,-22.80753,-43.17757,T,BCH,BR,,21.0,3304557.0,,,0,,-9999,America/Sao_Paulo,2016-06-22,Praia da Bandeira,,,,,,,,,,,,,,,,,,,,,,,,,,,,,,,,,,,,,,,,,,,,,,,,,,,,,,,,,,,,,,,,,,
52950,3470958,Saco das Bananas,Saco das Bananas,-23.58333,-45.21667,H,COVE,BR,,27.0,,,,0,,-9999,America/Sao_Paulo,2012-01-19,Sacco das Bananas,Saco das Bananas,,,,,,,,,,,,,,,,,,,,,,,,,,,,,,,,,,,,,,,,,,,,,,,,,,,,,,,,,,,,,,,,,
52975,3470983,Praia do Bananal,Praia do Bananal,-22.78797,-43.15903,T,BCH,BR,,21.0,3304557.0,,,0,,-9999,America/Sao_Paulo,2017-12-07,Praia do Bananal,,,,,,,,,,,,,,,,,,,,,,,,,,,,,,,,,,,,,,,,,,,,,,,,,,,,,,,,,,,,,,,,,,
52976,3470984,Ponta do Bananal,Ponta do Bananal,-23.09944,-44.25803,T,PT,BR,,21.0,3300100.0,,,0,,27,America/Sao_Paulo,2022-11-11,Ponta do Bananal,,,,,,,,,,,,,,,,,,,,,,,,,,,,,,,,,,,,,,,,,,,,,,,,,,,,,,,,,,,,,,,,,,
53036,3471044,Ponta da Baleia,Ponta da Baleia,-17.68751,-39.13499,T,PT,BR,,5.0,,,,0,,-9999,America/Bahia,2018-12-05,Ponta da Baleia,,,,,,,,,,,,,,,,,,,,,,,,,,,,,,,,,,,,,,,,,,,,,,,,,,,,,,,,,,,,,,,,,,
53121,3471129,Bairro do Barro,Bairro do Barro,-23.71667,-45.4,P,PPL,BR,,27.0,3550704.0,,,0,,-9999,America/Sao_Paulo,2018-07-25,Bairro do Barro,Barro,,,,,,,,,,,,,,,,,,,,,,,,,,,,,,,,,,,,,,,,,,,,,,,,,,,,,,,,,,,,,,,,,
53217,3471225,Canal do Bacalhau,Canal do Bacalhau,-23.05771,-43.56327,H,CHNM,BR,,21.0,,,,0,,151,America/Sao_Paulo,2012-01-19,Canal do Bacalhau,,,,,,,,,,,,,,,,,,,,,,,,,,,,,,,,,,,,,,,,,,,,,,,,,,,,,,,,,,,,,,,,,,
53371,3471379,As Ilhas,As Ilhas,-23.7965,-45.71789,T,ISLS,BR,,27.0,,,,0,,-9999,America/Sao_Paulo,2016-06-15,As Ilhas,,,,,,,,,,,,,,,,,,,,,,,,,,,,,,,,,,,,,,,,,,,,,,,,,,,,,,,,,,,,,,,,,,
53380,3471388,Ilha do Arvoredo,Ilha do Arvoredo,-27.28408,-48.36478,T,ISL,BR,,26.0,4205407.0,,,0,,246,America/Sao_Paulo,2014-04-07,Ilha Alvorada,Ilha do Arvorado,Ilha do Arvoredo,,,,,,,,,,,,,,,,,,,,,,,,,,,,,,,,,,,,,,,,,,,,,,,,,,,,,,,,,,,,,,,,
53381,3471389,Ilha do Arvoredo,Ilha do Arvoredo,-23.967,-46.167,T,ISL,BR,,27.0,3518701.0,,,0,,-9999,America/Sao_Paulo,2016-06-15,Ilha do Arvoredo,Ilha dos Arvoredos,,,,,,,,,,,,,,,,,,,,,,,,,,,,,,,,,,,,,,,,,,,,,,,,,,,,,,,,,,,,,,,,,
53452,3471460,Ponta do Arpoador,Ponta do Arpoador,-24.41316,-47.0084,T,PT,BR,,27.0,3537602.0,,,0,,30,America/Sao_Paulo,2016-06-15,Ponta do Arpoador,,,,,,,,,,,,,,,,,,,,,,,,,,,,,,,,,,,,,,,,,,,,,,,,,,,,,,,,,,,,,,,,,,
53455,3471463,Ponta Arpoador,Ponta Arpoador,-23.16667,-44.35,T,PT,BR,,21.0,3300100.0,,,0,,114,America/Sao_Paulo,2013-03-05,Ponta Arpoador,,,,,,,,,,,,,,,,,,,,,,,,,,,,,,,,,,,,,,,,,,,,,,,,,,,,,,,,,,,,,,,,,,
53459,3471467,Ilha das Arueiras,Ilha das Arueiras,-22.79006,-43.15179,T,ISL,BR,,21.0,3304557.0,,,0,,-9999,America/Sao_Paulo,2017-12-07,Ilha das Aroeiras,Ilha das Arueiras,Ilha das Aureiras,,,,,,,,,,,,,,,,,,,,,,,,,,,,,,,,,,,,,,,,,,,,,,,,,,,,,,,,,,,,,,,,
53480,3471488,Ponta da Armação,Ponta da Armacao,-23.8607,-46.12448,T,PT,BR,,27.0,,,,0,,0,America/Sao_Paulo,2016-06-15,Ponta da Amarracao,Ponta da Amarração,Ponta da Armacao,Ponta da Armação,,,,,,,,,,,,,,,,,,,,,,,,,,,,,,,,,,,,,,,,,,,,,,,,,,,,,,,,,,,,,,,
53624,3471633,Recifes da Areia,Recifes da Areia,-17.6,-39.05,H,RF,BR,,5.0,,,,0,,-9999,America/Bahia,1993-12-17,,,,,,,,,,,,,,,,,,,,,,,,,,,,,,,,,,,,,,,,,,,,,,,,,,,,,,,,,,,,,,,,,,,
53626,3471635,Ponta d’Areia,Ponta d'Areia,-17.75,-39.16667,T,PT,BR,,5.0,,,,0,,-9999,America/Bahia,2014-10-01,,,,,,,,,,,,,,,,,,,,,,,,,,,,,,,,,,,,,,,,,,,,,,,,,,,,,,,,,,,,,,,,,,,
53654,3471663,Arroio Areal,Arroio Areal,-30.45,-56.4,H,STM,BR,,23.0,,,,0,,99,America/Sao_Paulo,1993-12-17,,,,,,,,,,,,,,,,,,,,,,,,,,,,,,,,,,,,,,,,,,,,,,,,,,,,,,,,,,,,,,,,,,,
53693,3471702,Ponta de Aratuba,Ponta de Aratuba,-13.1,-38.73333,T,PT,BR,,5.0,,,,0,,-9999,America/Bahia,2018-12-05,Ponta de Aratuba,,,,,,,,,,,,,,,,,,,,,,,,,,,,,,,,,,,,,,,,,,,,,,,,,,,,,,,,,,,,,,,,,,
53694,3471703,Aratuba,Aratuba,-13.1,-38.75,P,PPL,BR,,5.0,2933208.0,,,0,,-9999,America/Bahia,2018-07-23,,,,,,,,,,,,,,,,,,,,,,,,,,,,,,,,,,,,,,,,,,,,,,,,,,,,,,,,,,,,,,,,,,,
53708,3471717,Recifes Arajipe,Recifes Arajipe,-16.18171,-38.90963,U,RFU,BR,,5.0,2927705.0,,,0,,-9999,America/Bahia,2014-10-23,Recife Acaripe,Recifes Aragipe,Recifes Arajipe,Recifes Araripe,,,,,,,,,,,,,,,,,,,,,,,,,,,,,,,,,,,,,,,,,,,,,,,,,,,,,,,,,,,,,,,
53738,3471747,Ilha das Araras,Ilha das Araras,-28.32221,-48.64883,T,ISL,BR,,26.0,,,,0,,19,America/Sao_Paulo,2011-07-07,Ilha das Araras,Ilhas das Araras,,,,,,,,,,,,,,,,,,,,,,,,,,,,,,,,,,,,,,,,,,,,,,,,,,,,,,,,,,,,,,,,,
53756,3471765,Ilha Araraquara,Ilha Araraquara,-23.06094,-44.55935,T,ISL,BR,,21.0,3303807.0,,,0,,88,America/Sao_Paulo,2014-04-08,Ilha Araraquara,,,,,,,,,,,,,,,,,,,,,,,,,,,,,,,,,,,,,,,,,,,,,,,,,,,,,,,,,,,,,,,,,,
53802,3471811,Ilhas das Aranhas,Ilhas das Aranhas,-27.48733,-48.36023,T,ISLS,BR,,26.0,,,,0,,11,America/Sao_Paulo,2016-06-13,Ilhas Aranas,,,,,,,,,,,,,,,,,,,,,,,,,,,,,,,,,,,,,,,,,,,,,,,,,,,,,,,,,,,,,,,,,,
53806,3471815,Recifes Aranguera,Recifes Aranguera,-17.66667,-39.01667,H,RF,BR,,5.0,,,,0,,-9999,America/Bahia,1993-12-17,,,,,,,,,,,,,,,,,,,,,,,,,,,,,,,,,,,,,,,,,,,,,,,,,,,,,,,,,,,,,,,,,,,
53834,3471843,Saco do Arado,Saco do Arado,-30.24609,-51.1641,H,COVE,BR,,23.0,,,,0,,1,America/Sao_Paulo,2021-04-10,Saco do Arado,,,,,,,,,,,,,,,,,,,,,,,,,,,,,,,,,,,,,,,,,,,,,,,,,,,,,,,,,,,,,,,,,,
53854,3471863,Enseada de Araçatiba,Enseada de Aracatiba,-23.14868,-44.32714,H,BAY,BR,,21.0,,,,0,,39,America/Sao_Paulo,2022-11-11,Enseada de Aracatiba,Enseada de Araçatiba,,,,,,,,,,,,,,,,,,,,,,,,,,,,,,,,,,,,,,,,,,,,,,,,,,,,,,,,,,,,,,,,,
53872,3471881,Arroio Araçá,Arroio Araca,-31.16667,-51.63333,H,STM,BR,,23.0,,,,0,,3,America/Sao_Paulo,1993-12-17,,,,,,,,,,,,,,,,,,,,,,,,,,,,,,,,,,,,,,,,,,,,,,,,,,,,,,,,,,,,,,,,,,,
53888,3471897,Rio Aquidabã,Rio Aquidaba,-20.96667,-57.83333,H,STM,BR,,11.0,,,,0,,76,America/Campo_Grande,2021-09-07,Aquidaba River,Aquidabã River,Rio Aquidaba,Rio Aquidaban,Rio Aquidabã,Rio Aquidavao,Rio Aquidavão,,,,,,,,,,,,,,,,,,,,,,,,,,,,,,,,,,,,,,,,,,,,,,,,,,,,,,,,,,,,
53948,3471957,Ponta do Apara,Ponta do Apara,-23.82916,-45.53779,T,PT,BR,,27.0,3550704.0,,,0,,43,America/Sao_Paulo,2016-06-15,Ponta do Apara,,,,,,,,,,,,,,,,,,,,,,,,,,,,,,,,,,,,,,,,,,,,,,,,,,,,,,,,,,,,,,,,,,
53949,3471958,Ponta do Apaga-Fogo,Ponta do Apaga-Fogo,-13.83333,-38.96667,T,PT,BR,,5.0,,,,0,,-9999,America/Bahia,2018-12-05,Ponta do Apaga-Fogo,,,,,,,,,,,,,,,,,,,,,,,,,,,,,,,,,,,,,,,,,,,,,,,,,,,,,,,,,,,,,,,,,,
54247,3472257,Ponta da Pinheira,Ponta da Pinheira,-27.87869,-48.57605,T,PT,BR,,26.0,4211900.0,,,0,,1,America/Sao_Paulo,2018-10-05,Ponta da Pinheira,Ponta das Andorinhas,,,,,,,,,,,,,,,,,,,,,,,,,,,,,,,,,,,,,,,,,,,,,,,,,,,,,,,,,,,,,,,,,
54248,3472258,Ilha das Andorinhas,Ilha das Andorinhas,-21.16263,-40.8841,T,ISL,BR,,8.0,,,,0,,-9999,America/Sao_Paulo,2022-11-11,Ilha das Andorinhas,,,,,,,,,,,,,,,,,,,,,,,,,,,,,,,,,,,,,,,,,,,,,,,,,,,,,,,,,,,,,,,,,,
54251,3472261,Ponta da Andorinha,Ponta da Andorinha,-23.20144,-44.19461,T,PT,BR,,21.0,,,,0,,95,America/Sao_Paulo,2022-11-11,Ponta da Andorinha,,,,,,,,,,,,,,,,,,,,,,,,,,,,,,,,,,,,,,,,,,,,,,,,,,,,,,,,,,,,,,,,,,
54264,3472274,Ilha da Âncora,Ilha da Ancora,-22.76914,-41.78942,T,ISL,BR,,21.0,,,,0,,98,America/Sao_Paulo,2014-04-07,Ilha da Ancora,Ilha da Âncora,Ilhas das Ancoras,,,,,,,,,,,,,,,,,,,,,,,,,,,,,,,,,,,,,,,,,,,,,,,,,,,,,,,,,,,,,,,,
54270,3472280,Ponta do Anastácio,Ponta do Anastacio,-30.38333,-50.73333,T,PT,BR,,23.0,,,,0,,1,America/Sao_Paulo,2012-01-19,Ponta do Anastacio,Ponta do Anastácio,Pontal do Anastacio,Pontal do Anastácio,,,,,,,,,,,,,,,,,,,,,,,,,,,,,,,,,,,,,,,,,,,,,,,,,,,,,,,,,,,,,,,
54367,3472377,Amaralina,Amaralina,-13.01338,-38.47564,P,PPLX,BR,,5.0,2927408.0,,,0,,15,America/Bahia,2019-12-04,Amaralina,,,,,,,,,,,,,,,,,,,,,,,,,,,,,,,,,,,,,,,,,,,,,,,,,,,,,,,,,,,,,,,,,,
54546,3472556,Rio Almada,Rio Almada,-14.7758,-39.05277,H,STM,BR,,5.0,,,,0,,1,America/Bahia,2021-08-23,Almada River,Rio Almada,,,,,,,,,,,,,,,,,,,,,,,,,,,,,,,,,,,,,,,,,,,,,,,,,,,,,,,,,,,,,,,,,
54569,3472579,Ilha do Algodão,Ilha do Algodao,-23.03685,-44.51823,T,ISL,BR,,21.0,3300100.0,,,0,,34,America/Sao_Paulo,2014-04-21,Algodon Island,Ilha do Algodao,Ilha do Algodão,,,,,,,,,,,,,,,,,,,,,,,,,,,,,,,,,,,,,,,,,,,,,,,,,,,,,,,,,,,,,,,,
54594,3472604,Ilha Alfavaca,Ilha Alfavaca,-23.03239,-43.30008,T,ISL,BR,,21.0,3304557.0,,,0,47.0,36,America/Sao_Paulo,2017-12-05,Ilha Alfavaca,Ilha da Alfavaca,,,,,,,,,,,,,,,,,,,,,,,,,,,,,,,,,,,,,,,,,,,,,,,,,,,,,,,,,,,,,,,,,
54626,3472636,Ilha Alegrete,Ilha Alegrete,-20.76667,-57.95,T,ISL,BR,,11.0,,,,0,,74,America/Campo_Grande,2012-01-19,Ilha Alegrete,Ilha Santa Elena,Ilha Santa Helena,,,,,,,,,,,,,,,,,,,,,,,,,,,,,,,,,,,,,,,,,,,,,,,,,,,,,,,,,,,,,,,,
54644,3472654,Ponta Alegre,Ponta Alegre,-32.36667,-52.78333,T,PT,BR,,23.0,,,,0,,3,America/Sao_Paulo,2018-12-05,Ponta Alegre,,,,,,,,,,,,,,,,,,,,,,,,,,,,,,,,,,,,,,,,,,,,,,,,,,,,,,,,,,,,,,,,,,
54722,3472732,Ilha de Alcatrazes,Ilha de Alcatrazes,-24.10124,-45.69218,T,ISL,BR,,27.0,,,,0,,186,America/Sao_Paulo,2017-12-20,Alcatrasses Island,Ilha de Alcatrazes,Ilha de Alcatrezes,,,,,,,,,,,,,,,,,,,,,,,,,,,,,,,,,,,,,,,,,,,,,,,,,,,,,,,,,,,,,,,,
54723,3472733,Arquipélago de Alcatrazes,Arquipelago de Alcatrazes,-24.08816,-45.67394,T,ISLS,BR,,27.0,,,,0,,-9999,America/Sao_Paulo,2017-12-20,Alcatrasses Islands,Arquipelago de Alcatrazes,Arquipélago de Alcatrazes,Ilhas Alcatrazes,Lajes Alcatrazes,,,,,,,,,,,,,,,,,,,,,,,,,,,,,,,,,,,,,,,,,,,,,,,,,,,,,,,,,,,,,,
54769,3472779,Recife dos Alagados,Recife dos Alagados,-16.26667,-38.96667,H,RF,BR,,5.0,,,,0,,-9999,America/Bahia,1993-12-17,,,,,,,,,,,,,,,,,,,,,,,,,,,,,,,,,,,,,,,,,,,,,,,,,,,,,,,,,,,,,,,,,,,
55095,3473105,Ilha d’Água,Ilha d'Agua,-22.81278,-43.16301,T,ISL,BR,,21.0,,,,0,,0,America/Sao_Paulo,2019-02-21,Ilha D'Agua,Ilha D’Água,Ilha d'Agua,Ilha d’Água,,,,,,,,,,,,,,,,,,,,,,,,,,,,,,,,,,,,,,,,,,,,,,,,,,,,,,,,,,,,,,,
55127,3473137,Ponta dos Afogados,Ponta dos Afogados,-33.15,-53.41667,T,PT,BR,,23.0,,,,0,,0,America/Sao_Paulo,2012-01-19,Ponta Cebollati,Ponta dos Afogados,,,,,,,,,,,,,,,,,,,,,,,,,,,,,,,,,,,,,,,,,,,,,,,,,,,,,,,,,,,,,,,,,
55128,3473138,Ilha dos Afogados,Ilha dos Afogados,-33.13333,-53.4,T,ISL,BR,,23.0,,,,0,,0,America/Sao_Paulo,2018-12-05,Ilha dos Afogados,,,,,,,,,,,,,,,,,,,,,,,,,,,,,,,,,,,,,,,,,,,,,,,,,,,,,,,,,,,,,,,,,,
55171,3473181,Ponta Açu da Tôrre,Ponta Acu da Torre,-12.57792,-38.00173,T,PT,BR,,5.0,2921005.0,,,0,,-9999,America/Bahia,2018-01-02,Ponta Acu da Torre,Ponta Açu da Tôrre,Ponta Grossa,,,,,,,,,,,,,,,,,,,,,,,,,,,,,,,,,,,,,,,,,,,,,,,,,,,,,,,,,,,,,,,,
55211,3473221,Ponta do Acaiá,Ponta do Acaia,-23.1749,-44.3782,T,PT,BR,,21.0,3300100.0,,,0,,1,America/Sao_Paulo,2022-11-11,Ponta Acaia,Ponta Acaiá,Ponta do Acaia,Ponta do Acaiá,,,,,,,,,,,,,,,,,,,,,,,,,,,,,,,,,,,,,,,,,,,,,,,,,,,,,,,,,,,,,,,
55217,3473227,Parcel dos Abrolhos,Parcel dos Abrolhos,-18.01667,-38.66667,H,SHOL,BR,,5.0,,,,0,,1,America/Bahia,2012-01-19,Parcel dos Abrolhos,Porcel do Abrolhos,Porcel do Abrolhös,,,,,,,,,,,,,,,,,,,,,,,,,,,,,,,,,,,,,,,,,,,,,,,,,,,,,,,,,,,,,,,,
55218,3473228,Canal dos Abrolhos,Canal dos Abrolhos,-17.83333,-38.66667,H,CHNM,BR,,5.0,,,,0,,-9999,America/Bahia,1993-12-17,,,,,,,,,,,,,,,,,,,,,,,,,,,,,,,,,,,,,,,,,,,,,,,,,,,,,,,,,,,,,,,,,,,
55219,3473229,Arquipélago dos Abrolhos,Arquipelago dos Abrolhos,-17.97122,-38.70028,T,ISLS,BR,,5.0,,,,0,,-9999,America/Bahia,2017-12-05,,,,,,,,,,,,,,,,,,,,,,,,,,,,,,,,,,,,,,,,,,,,,,,,,,,,,,,,,,,,,,,,,,,
55230,3473240,Abraão,Abraao,-23.14028,-44.16917,P,PPLL,BR,,21.0,3300100.0,,,0,,5,America/Sao_Paulo,2012-08-03,Abrahao,Abrahão,Vila do Abraao,,,,,,,,,,,,,,,,,,,,,,,,,,,,,,,,,,,,,,,,,,,,,,,,,,,,,,,,,,,,,,,,
55270,3473410,Rochedos Dom Rodrigo,Rochedos Dom Rodrigo,-10.15,-36.08333,T,RKS,BR,,2.0,,,,0,,-9999,America/Noronha,1995-11-20,,,,,,,,,,,,,,,,,,,,,,,,,,,,,,,,,,,,,,,,,,,,,,,,,,,,,,,,,,,,,,,,,,,
55271,3473411,Baixo Seco,Baixo Seco,-10.18333,-36.14167,H,RF,BR,,2.0,,,,0,,-9999,America/Noronha,1995-11-20,,,,,,,,,,,,,,,,,,,,,,,,,,,,,,,,,,,,,,,,,,,,,,,,,,,,,,,,,,,,,,,,,,,
55272,3473412,Baixo Pará,Baixo Para,-10.3,-36.2,H,RF,BR,,2.0,,,,0,4.0,-9999,America/Noronha,1995-11-20,,,,,,,,,,,,,,,,,,,,,,,,,,,,,,,,,,,,,,,,,,,,,,,,,,,,,,,,,,,,,,,,,,,
55288,3473428,Banco de Santo Antonio,Banco de Santo Antonio,-13.05217,-38.51865,H,BNK,BR,,5.0,,,,0,,-9999,America/Bahia,2018-01-02,,,,,,,,,,,,,,,,,,,,,,,,,,,,,,,,,,,,,,,,,,,,,,,,,,,,,,,,,,,,,,,,,,,
55292,3473432,Rio Guarapuá,Rio Guarapua,-13.48333,-38.91667,H,STM,BR,,5.0,,,,0,,1,America/Bahia,1995-11-20,,,,,,,,,,,,,,,,,,,,,,,,,,,,,,,,,,,,,,,,,,,,,,,,,,,,,,,,,,,,,,,,,,,
55296,3473437,Laje da Torre,Laje da Torre,-12.58414,-38.00733,H,SHOL,BR,,5.0,,,,0,,-9999,America/Bahia,2018-01-02,,,,,,,,,,,,,,,,,,,,,,,,,,,,,,,,,,,,,,,,,,,,,,,,,,,,,,,,,,,,,,,,,,,
55321,3473462,Ilha do Passarinho,Ilha do Passarinho,-20.33391,-40.27482,T,RK,BR,,8.0,,,,0,,-9999,America/Sao_Paulo,2018-11-29,Ilha do Passarinho,,,,,,,,,,,,,,,,,,,,,,,,,,,,,,,,,,,,,,,,,,,,,,,,,,,,,,,,,,,,,,,,,,
55325,3473466,Baixio Grande,Baixio Grande,-20.31499,-40.25363,H,SHOL,BR,,8.0,3205200.0,,,0,,-9999,America/Sao_Paulo,2018-11-29,Baixio Grande,,,,,,,,,,,,,,,,,,,,,,,,,,,,,,,,,,,,,,,,,,,,,,,,,,,,,,,,,,,,,,,,,,
55326,3473467,Baixio Pequeño,Baixio Pequeno,-20.31006,-40.25819,H,SHOL,BR,,8.0,3205200.0,,,0,,-9999,America/Sao_Paulo,2018-11-29,Baixio Pequeno,Baixio Pequeño,,,,,,,,,,,,,,,,,,,,,,,,,,,,,,,,,,,,,,,,,,,,,,,,,,,,,,,,,,,,,,,,,
55327,3473468,Praia do Porto,Praia do Porto,-20.27083,-40.23056,T,BCH,BR,,8.0,,,,0,,-9999,America/Sao_Paulo,2012-12-06,Praia do Porto,,,,,,,,,,,,,,,,,,,,,,,,,,,,,,,,,,,,,,,,,,,,,,,,,,,,,,,,,,,,,,,,,,
55337,3473478,Ilhas Jucu,Ilhas Jucu,-20.41806,-40.30833,T,RKS,BR,,8.0,,,,0,,-9999,America/Sao_Paulo,2012-12-06,Ilhas Jucu,,,,,,,,,,,,,,,,,,,,,,,,,,,,,,,,,,,,,,,,,,,,,,,,,,,,,,,,,,,,,,,,,,
55339,3473480,Baixo Carapebus,Baixo Carapebus,-20.24167,-40.16667,H,SHOL,BR,,8.0,,,,0,,-9999,America/Sao_Paulo,1995-11-21,,,,,,,,,,,,,,,,,,,,,,,,,,,,,,,,,,,,,,,,,,,,,,,,,,,,,,,,,,,,,,,,,,,
55341,3473482,Pedra da Arapiranga,Pedra da Arapiranga,-14.90417,-39.0125,T,RK,BR,,5.0,,,,0,,-9999,America/Bahia,1995-11-21,,,,,,,,,,,,,,,,,,,,,,,,,,,,,,,,,,,,,,,,,,,,,,,,,,,,,,,,,,,,,,,,,,,
55342,3473483,Rio Corurupe,Rio Corurupe,-14.88333,-39.02222,H,STM,BR,,5.0,,,,0,,-9999,America/Bahia,1995-11-21,,,,,,,,,,,,,,,,,,,,,,,,,,,,,,,,,,,,,,,,,,,,,,,,,,,,,,,,,,,,,,,,,,,
55343,3473484,Barra do Corurupe,Barra do Corurupe,-14.88333,-39.02222,H,STMM,BR,,5.0,,,,0,,-9999,America/Bahia,1995-11-21,,,,,,,,,,,,,,,,,,,,,,,,,,,,,,,,,,,,,,,,,,,,,,,,,,,,,,,,,,,,,,,,,,,
55344,3473485,Pedra Dona Lina,Pedra Dona Lina,-14.85,-39.00833,T,RK,BR,,5.0,,,,0,,-9999,America/Bahia,1995-11-21,,,,,,,,,,,,,,,,,,,,,,,,,,,,,,,,,,,,,,,,,,,,,,,,,,,,,,,,,,,,,,,,,,,
55347,3473488,Laje do Rapa,Laje do Rapa,-14.80833,-39.01944,T,RK,BR,,5.0,,,,0,,-9999,America/Bahia,1995-11-21,,,,,,,,,,,,,,,,,,,,,,,,,,,,,,,,,,,,,,,,,,,,,,,,,,,,,,,,,,,,,,,,,,,
55349,3473490,Ilhota de Itapitanga,Ilhota de Itapitanga,-14.78333,-39.01667,T,RK,BR,,5.0,,,,0,,-9999,America/Bahia,1996-02-29,,,,,,,,,,,,,,,,,,,,,,,,,,,,,,,,,,,,,,,,,,,,,,,,,,,,,,,,,,,,,,,,,,,
55350,3473491,Parcel das Sororocas,Parcel das Sororocas,-14.79167,-39.01667,H,SHOL,BR,,5.0,,,,0,,-9999,America/Bahia,1995-11-21,,,,,,,,,,,,,,,,,,,,,,,,,,,,,,,,,,,,,,,,,,,,,,,,,,,,,,,,,,,,,,,,,,,
55351,3473492,Recifes Itaipins,Recifes Itaipins,-14.78333,-39.01667,T,RKS,BR,,5.0,,,,0,,-9999,America/Bahia,1995-11-21,,,,,,,,,,,,,,,,,,,,,,,,,,,,,,,,,,,,,,,,,,,,,,,,,,,,,,,,,,,,,,,,,,,
55352,3473493,Ilhéu Grande,Ilheu Grande,-14.76667,-39.01667,T,RK,BR,,5.0,,,,0,,-9999,America/Bahia,1995-11-21,,,,,,,,,,,,,,,,,,,,,,,,,,,,,,,,,,,,,,,,,,,,,,,,,,,,,,,,,,,,,,,,,,,
55353,3473494,Port Of Ilheus,Port Of Ilheus,-14.775,-39.03333,L,PRT,BR,,5.0,,,,0,,-9999,America/Bahia,2020-07-10,Port Of Ilheus,Porto de Ilheus,Porto de Ilhéus,Porto do Malhado,,,,,,,,,,,,,,,,,,,,,,,,,,,,,,,,,,,,,,,,,,,,,,,,,,,,,,,,,,,,,,,
55355,3473496,Barra de Itaípe,Barra de Itaipe,-14.775,-39.05417,H,STMM,BR,,5.0,,,,0,,1,America/Bahia,1995-11-21,,,,,,,,,,,,,,,,,,,,,,,,,,,,,,,,,,,,,,,,,,,,,,,,,,,,,,,,,,,,,,,,,,,
55356,3473497,Ponta do Ramo,Ponta do Ramo,-14.59583,-39.05417,T,PT,BR,,5.0,2913606.0,,,0,,8,America/Bahia,2018-12-05,Ponta do Ramo,,,,,,,,,,,,,,,,,,,,,,,,,,,,,,,,,,,,,,,,,,,,,,,,,,,,,,,,,,,,,,,,,,
55357,3473498,Praia do Ramo,Praia do Ramo,-14.59167,-39.05417,T,BCH,BR,,5.0,2913606.0,,,0,,6,America/Bahia,2018-12-05,Praia do Ramo,,,,,,,,,,,,,,,,,,,,,,,,,,,,,,,,,,,,,,,,,,,,,,,,,,,,,,,,,,,,,,,,,,
55358,3473499,Ponta do Malhado,Ponta do Malhado,-14.78333,-39.03333,T,PT,BR,,5.0,2913606.0,,,0,,7,America/Bahia,2018-12-05,Ponta do Malhado,,,,,,,,,,,,,,,,,,,,,,,,,,,,,,,,,,,,,,,,,,,,,,,,,,,,,,,,,,,,,,,,,,
55359,3473500,Praia do Marciano,Praia do Marciano,-14.77778,-39.04722,T,BCH,BR,,5.0,,,,0,,1,America/Bahia,2018-12-05,Praia do Marciano,,,,,,,,,,,,,,,,,,,,,,,,,,,,,,,,,,,,,,,,,,,,,,,,,,,,,,,,,,,,,,,,,,
55360,3473501,Praia Izidoro Lemos,Praia Izidoro Lemos,-14.78333,-39.04167,T,BCH,BR,,5.0,2913606.0,,,0,,1,America/Bahia,2018-12-05,Praia Izidoro Lemos,,,,,,,,,,,,,,,,,,,,,,,,,,,,,,,,,,,,,,,,,,,,,,,,,,,,,,,,,,,,,,,,,,
55362,3473503,Pedras da Trincheira,Pedras da Trincheira,-14.78472,-39.03056,T,RKS,BR,,5.0,,,,0,,7,America/Bahia,1996-02-29,,,,,,,,,,,,,,,,,,,,,,,,,,,,,,,,,,,,,,,,,,,,,,,,,,,,,,,,,,,,,,,,,,,
55366,3473507,Coroa do Rapa,Coroa do Rapa,-14.79722,-39.02917,H,SHOL,BR,,5.0,,,,0,,-9999,America/Bahia,1996-02-29,,,,,,,,,,,,,,,,,,,,,,,,,,,,,,,,,,,,,,,,,,,,,,,,,,,,,,,,,,,,,,,,,,,
55367,3473508,Ilheuzinho,Ilheuzinho,-14.76972,-39.015,T,ISL,BR,,5.0,,,,0,,-9999,America/Bahia,2018-12-05,Ilheuzinho,,,,,,,,,,,,,,,,,,,,,,,,,,,,,,,,,,,,,,,,,,,,,,,,,,,,,,,,,,,,,,,,,,
55373,3473514,Ponta Maria Augusta,Ponta Maria Augusta,-14.805,-39.03194,T,PT,BR,,5.0,2913606.0,,,0,,7,America/Bahia,2018-12-05,Ponta Maria Augusta,,,,,,,,,,,,,,,,,,,,,,,,,,,,,,,,,,,,,,,,,,,,,,,,,,,,,,,,,,,,,,,,,,
55374,3473515,Coroa do Capão,Coroa do Capao,-14.80472,-39.02972,T,BAR,BR,,5.0,,,,0,,4,America/Bahia,1996-02-29,,,,,,,,,,,,,,,,,,,,,,,,,,,,,,,,,,,,,,,,,,,,,,,,,,,,,,,,,,,,,,,,,,,
55375,3473516,Praia do Sul,Praia do Sul,-14.82083,-39.025,T,BCH,BR,,5.0,2913606.0,,,0,,-9999,America/Bahia,2018-12-05,Praia do Sul,,,,,,,,,,,,,,,,,,,,,,,,,,,,,,,,,,,,,,,,,,,,,,,,,,,,,,,,,,,,,,,,,,
55379,3473520,Cajaíbas de Dentro,Cajaibas de Dentro,-22.69049,-43.06115,T,ISL,BR,,21.0,3302502.0,,,0,,-9999,America/Sao_Paulo,2017-12-07,Cajaibas de Dentro,Cajaíbas de Dentro,,,,,,,,,,,,,,,,,,,,,,,,,,,,,,,,,,,,,,,,,,,,,,,,,,,,,,,,,,,,,,,,,
55380,3473521,Tatingas,Tatingas,-22.69208,-43.07251,T,RKS,BR,,21.0,,,,0,,-9999,America/Sao_Paulo,2017-12-07,Tatingas,,,,,,,,,,,,,,,,,,,,,,,,,,,,,,,,,,,,,,,,,,,,,,,,,,,,,,,,,,,,,,,,,,
55382,3473523,Ponta Mata-Fome,Ponta Mata-Fome,-22.68226,-43.08724,T,PT,BR,,21.0,3302502.0,,,0,,-9999,America/Sao_Paulo,2017-12-07,Ponta Mata-Fome,,,,,,,,,,,,,,,,,,,,,,,,,,,,,,,,,,,,,,,,,,,,,,,,,,,,,,,,,,,,,,,,,,
55385,3473526,Ponta de Goianã,Ponta de Goiana,-22.7,-43.1,T,PT,BR,,21.0,,,,0,,-9999,America/Sao_Paulo,2012-12-06,Ponta de Goiana,Ponta de Goianã,,,,,,,,,,,,,,,,,,,,,,,,,,,,,,,,,,,,,,,,,,,,,,,,,,,,,,,,,,,,,,,,,
55386,3473527,Rio Suruí,Rio Surui,-22.69246,-43.11238,H,STM,BR,,21.0,,,,0,,5,America/Sao_Paulo,2021-08-12,Rio Surui,Rio Suruí,Surui River,Suruí River,,,,,,,,,,,,,,,,,,,,,,,,,,,,,,,,,,,,,,,,,,,,,,,,,,,,,,,,,,,,,,,
55388,3473529,Ponta da Batalha,Ponta da Batalha,-22.71667,-43.13333,T,PT,BR,,21.0,,,,0,,-9999,America/Sao_Paulo,2012-12-06,Ponta da Batalha,,,,,,,,,,,,,,,,,,,,,,,,,,,,,,,,,,,,,,,,,,,,,,,,,,,,,,,,,,,,,,,,,,
55389,3473530,Ponta do Mata-Fome,Ponta do Mata-Fome,-22.71667,-43.13333,T,PT,BR,,21.0,,,,0,,-9999,America/Sao_Paulo,2012-12-06,Ponta do Mata-Fome,,,,,,,,,,,,,,,,,,,,,,,,,,,,,,,,,,,,,,,,,,,,,,,,,,,,,,,,,,,,,,,,,,
55390,3473531,Pedra da Cruz,Pedra da Cruz,-22.71667,-43.13333,T,RK,BR,,21.0,,,,0,,-9999,America/Sao_Paulo,2012-12-06,Pedra da Cruz,,,,,,,,,,,,,,,,,,,,,,,,,,,,,,,,,,,,,,,,,,,,,,,,,,,,,,,,,,,,,,,,,,
55393,3473534,Pedras Altas,Pedras Altas,-22.71667,-43.16667,T,RKS,BR,,21.0,,,,0,,-9999,America/Sao_Paulo,2012-12-06,Pedras Altas,,,,,,,,,,,,,,,,,,,,,,,,,,,,,,,,,,,,,,,,,,,,,,,,,,,,,,,,,,,,,,,,,,
55395,3473536,Taputeras,Taputeras,-22.73333,-43.2,T,RKS,BR,,21.0,,,,0,,-9999,America/Sao_Paulo,2012-12-06,Taputeras,,,,,,,,,,,,,,,,,,,,,,,,,,,,,,,,,,,,,,,,,,,,,,,,,,,,,,,,,,,,,,,,,,
55397,3473538,Cabo do Brito,Cabo do Brito,-22.73343,-43.21417,T,CAPE,BR,,21.0,,,,0,,4,America/Sao_Paulo,2012-01-19,Cabo do Brito,,,,,,,,,,,,,,,,,,,,,,,,,,,,,,,,,,,,,,,,,,,,,,,,,,,,,,,,,,,,,,,,,,
55400,3473541,Vala Boca Larga,Vala Boca Larga,-22.73885,-43.23079,H,STMC,BR,,21.0,,,,0,,-9999,America/Sao_Paulo,2012-01-19,Vala Boca Larga,,,,,,,,,,,,,,,,,,,,,,,,,,,,,,,,,,,,,,,,,,,,,,,,,,,,,,,,,,,,,,,,,,
55402,3473543,Pedra do Roaz,Pedra do Roaz,-22.78333,-43.2,T,RK,BR,,21.0,,,,0,,-9999,America/Sao_Paulo,2012-12-06,Pedra do Roaz,,,,,,,,,,,,,,,,,,,,,,,,,,,,,,,,,,,,,,,,,,,,,,,,,,,,,,,,,,,,,,,,,,
55403,3473544,Estrela,Estrela,-22.75,-43.18333,T,RK,BR,,21.0,,,,0,,-9999,America/Sao_Paulo,2012-12-06,Estrela,,,,,,,,,,,,,,,,,,,,,,,,,,,,,,,,,,,,,,,,,,,,,,,,,,,,,,,,,,,,,,,,,,
55405,3473546,Ilha do Porrete,Ilha do Porrete,-22.78333,-43.16667,T,ISL,BR,,21.0,,,,0,,3,America/Sao_Paulo,2012-12-06,Ilha do Porrete,,,,,,,,,,,,,,,,,,,,,,,,,,,,,,,,,,,,,,,,,,,,,,,,,,,,,,,,,,,,,,,,,,
55406,3473547,Pedra do Audaz,Pedra do Audaz,-22.76667,-43.15,T,RK,BR,,21.0,,,,0,,-9999,America/Sao_Paulo,2012-12-06,Pedra do Audaz,,,,,,,,,,,,,,,,,,,,,,,,,,,,,,,,,,,,,,,,,,,,,,,,,,,,,,,,,,,,,,,,,,
55407,3473548,Pedras do Boi,Pedras do Boi,-22.78197,-43.14069,T,RKS,BR,,21.0,3304557.0,,,0,,-9999,America/Sao_Paulo,2017-12-07,Calhas,Pedras do Boi,,,,,,,,,,,,,,,,,,,,,,,,,,,,,,,,,,,,,,,,,,,,,,,,,,,,,,,,,,,,,,,,,
55408,3473549,Laje do Machado,Laje do Machado,-22.76667,-43.13333,T,RK,BR,,21.0,,,,0,,-9999,America/Sao_Paulo,2012-12-06,Laje do Machado,,,,,,,,,,,,,,,,,,,,,,,,,,,,,,,,,,,,,,,,,,,,,,,,,,,,,,,,,,,,,,,,,,
55409,3473550,Congurupis de Dentro,Congurupis de Dentro,-22.75,-43.13333,T,RK,BR,,21.0,,,,0,,-9999,America/Sao_Paulo,2012-12-06,Congurupis de Dentro,,,,,,,,,,,,,,,,,,,,,,,,,,,,,,,,,,,,,,,,,,,,,,,,,,,,,,,,,,,,,,,,,,
55410,3473551,Congurupis de Fora,Congurupis de Fora,-22.75,-43.13333,T,RK,BR,,21.0,,,,0,,-9999,America/Sao_Paulo,2012-12-06,Congurupis de Fora,,,,,,,,,,,,,,,,,,,,,,,,,,,,,,,,,,,,,,,,,,,,,,,,,,,,,,,,,,,,,,,,,,
55411,3473552,Pedras do Manto,Pedras do Manto,-22.75,-43.11667,T,RKS,BR,,21.0,,,,0,,1,America/Sao_Paulo,2012-12-06,Pedras do Manto,,,,,,,,,,,,,,,,,,,,,,,,,,,,,,,,,,,,,,,,,,,,,,,,,,,,,,,,,,,,,,,,,,
55412,3473553,Pedras do Gonçalo,Pedras do Goncalo,-22.75672,-43.12851,T,RKS,BR,,21.0,3304557.0,,,0,,-9999,America/Sao_Paulo,2017-12-07,Pedras do Goncalo,Pedras do Gonçalo,,,,,,,,,,,,,,,,,,,,,,,,,,,,,,,,,,,,,,,,,,,,,,,,,,,,,,,,,,,,,,,,,
55413,3473554,Pedra de São Roque,Pedra de Sao Roque,-22.75,-43.11667,T,RK,BR,,21.0,,,,0,,1,America/Sao_Paulo,2012-12-06,Pedra de Sao Roque,Pedra de São Roque,,,,,,,,,,,,,,,,,,,,,,,,,,,,,,,,,,,,,,,,,,,,,,,,,,,,,,,,,,,,,,,,,
55414,3473555,Ponta do Lameirão,Ponta do Lameirao,-22.74904,-43.10966,T,PT,BR,,21.0,,,,0,,1,America/Sao_Paulo,2012-01-19,Ponta do Lameirao,Ponta do Lameirão,,,,,,,,,,,,,,,,,,,,,,,,,,,,,,,,,,,,,,,,,,,,,,,,,,,,,,,,,,,,,,,,,
55415,3473556,Pedras de Itaoquinha,Pedras de Itaoquinha,-22.75,-43.11667,T,RKS,BR,,21.0,,,,0,,1,America/Sao_Paulo,2012-12-06,Pedras de Itaoquinha,,,,,,,,,,,,,,,,,,,,,,,,,,,,,,,,,,,,,,,,,,,,,,,,,,,,,,,,,,,,,,,,,,
55416,3473557,Moreninhas,Moreninhas,-22.75,-43.11667,T,RKS,BR,,21.0,,,,0,,1,America/Sao_Paulo,2012-12-06,Moreninhas,,,,,,,,,,,,,,,,,,,,,,,,,,,,,,,,,,,,,,,,,,,,,,,,,,,,,,,,,,,,,,,,,,
55417,3473558,Duas Irmas,Duas Irmas,-22.76325,-43.11723,T,RKS,BR,,21.0,3304557.0,,,0,,1,America/Sao_Paulo,2017-12-07,Duas Irmas,,,,,,,,,,,,,,,,,,,,,,,,,,,,,,,,,,,,,,,,,,,,,,,,,,,,,,,,,,,,,,,,,,
55418,3473559,Ponta da Cruz,Ponta da Cruz,-22.76757,-43.11437,T,PT,BR,,21.0,3304557.0,,,0,,-9999,America/Sao_Paulo,2017-12-07,Ponta da Cruz,,,,,,,,,,,,,,,,,,,,,,,,,,,,,,,,,,,,,,,,,,,,,,,,,,,,,,,,,,,,,,,,,,
55419,3473560,Pedra Rachada,Pedra Rachada,-22.78333,-43.1,T,RK,BR,,21.0,,,,0,,-9999,America/Sao_Paulo,2012-12-06,Pedra Rachada,,,,,,,,,,,,,,,,,,,,,,,,,,,,,,,,,,,,,,,,,,,,,,,,,,,,,,,,,,,,,,,,,,
55420,3473561,Laje Rachada,Laje Rachada,-22.78333,-43.1,T,RK,BR,,21.0,,,,0,,-9999,America/Sao_Paulo,2012-12-06,Laje Rachada,,,,,,,,,,,,,,,,,,,,,,,,,,,,,,,,,,,,,,,,,,,,,,,,,,,,,,,,,,,,,,,,,,
55421,3473562,Pedra do Bom Nome,Pedra do Bom Nome,-22.78333,-43.08333,T,RK,BR,,21.0,,,,0,,1,America/Sao_Paulo,2012-12-06,Pedra do Bom Nome,,,,,,,,,,,,,,,,,,,,,,,,,,,,,,,,,,,,,,,,,,,,,,,,,,,,,,,,,,,,,,,,,,
55422,3473563,Trinta Réis,Trinta Reis,-22.78333,-43.1,T,ISLS,BR,,21.0,,,,0,,-9999,America/Sao_Paulo,2012-12-06,Trinta Reis,Trinta Réis,,,,,,,,,,,,,,,,,,,,,,,,,,,,,,,,,,,,,,,,,,,,,,,,,,,,,,,,,,,,,,,,,
55423,3473564,Ponta da Espia,Ponta da Espia,-22.76667,-43.1,T,PT,BR,,21.0,,,,0,,-9999,America/Sao_Paulo,2012-12-06,Ponta da Espia,,,,,,,,,,,,,,,,,,,,,,,,,,,,,,,,,,,,,,,,,,,,,,,,,,,,,,,,,,,,,,,,,,
55424,3473565,Laje do Cabaceiro,Laje do Cabaceiro,-22.76667,-43.1,T,RK,BR,,21.0,,,,0,,-9999,America/Sao_Paulo,2012-12-06,Laje do Cabaceiro,,,,,,,,,,,,,,,,,,,,,,,,,,,,,,,,,,,,,,,,,,,,,,,,,,,,,,,,,,,,,,,,,,
55425,3473566,Gravataís,Gravatais,-22.78333,-43.11667,T,ISLS,BR,,21.0,,,,0,,-9999,America/Sao_Paulo,2012-12-06,Gravatais,Gravataís,,,,,,,,,,,,,,,,,,,,,,,,,,,,,,,,,,,,,,,,,,,,,,,,,,,,,,,,,,,,,,,,,
55426,3473567,Pedra da Sardinha,Pedra da Sardinha,-22.8,-43.13333,T,RK,BR,,21.0,,,,0,,-9999,America/Sao_Paulo,2012-12-06,Pedra da Sardinha,,,,,,,,,,,,,,,,,,,,,,,,,,,,,,,,,,,,,,,,,,,,,,,,,,,,,,,,,,,,,,,,,,
55427,3473568,Ponta da Ribeira,Ponta da Ribeira,-22.76667,-43.1,T,PT,BR,,21.0,,,,0,,-9999,America/Sao_Paulo,2012-12-06,Ponta da Ribeira,,,,,,,,,,,,,,,,,,,,,,,,,,,,,,,,,,,,,,,,,,,,,,,,,,,,,,,,,,,,,,,,,,
55428,3473569,Ponta da Imbuca,Ponta da Imbuca,-22.76999,-43.10786,T,PT,BR,,21.0,,,,0,,-9999,America/Sao_Paulo,2012-01-19,Ponta da Imbuca,,,,,,,,,,,,,,,,,,,,,,,,,,,,,,,,,,,,,,,,,,,,,,,,,,,,,,,,,,,,,,,,,,
55429,3473570,Ilha Dos Lobos,Ilha Dos Lobos,-22.76667,-43.1,T,ISL,BR,,21.0,,,,0,,-9999,America/Sao_Paulo,2012-12-06,Ilha Dos Lobos,,,,,,,,,,,,,,,,,,,,,,,,,,,,,,,,,,,,,,,,,,,,,,,,,,,,,,,,,,,,,,,,,,
55430,3473571,Ponta do Castelo,Ponta do Castelo,-22.75159,-43.10282,T,PT,BR,,21.0,,,,0,,0,America/Sao_Paulo,2019-02-22,Ponta do Castelo,,,,,,,,,,,,,,,,,,,,,,,,,,,,,,,,,,,,,,,,,,,,,,,,,,,,,,,,,,,,,,,,,,
55431,3473572,Laje da Piedade,Laje da Piedade,-22.73333,-43.1,T,RK,BR,,21.0,,,,0,,-9999,America/Sao_Paulo,2012-12-06,Laje da Piedade,,,,,,,,,,,,,,,,,,,,,,,,,,,,,,,,,,,,,,,,,,,,,,,,,,,,,,,,,,,,,,,,,,
55432,3473573,Taicis,Taicis,-22.75,-43.06667,T,ISLS,BR,,21.0,,,,0,,-9999,America/Sao_Paulo,2012-12-06,Taicis,,,,,,,,,,,,,,,,,,,,,,,,,,,,,,,,,,,,,,,,,,,,,,,,,,,,,,,,,,,,,,,,,,
55434,3473575,Ponta da Luz,Ponta da Luz,-22.78333,-43.08333,T,PT,BR,,21.0,,,,0,,1,America/Sao_Paulo,2012-12-06,Ponta da Luz,,,,,,,,,,,,,,,,,,,,,,,,,,,,,,,,,,,,,,,,,,,,,,,,,,,,,,,,,,,,,,,,,,
55435,3473576,Ilha de Itaoquinha,Ilha de Itaoquinha,-22.76667,-43.06667,T,ISL,BR,,21.0,,,,0,,1,America/Sao_Paulo,2012-12-06,Ilha de Itaoquinha,,,,,,,,,,,,,,,,,,,,,,,,,,,,,,,,,,,,,,,,,,,,,,,,,,,,,,,,,,,,,,,,,,
55436,3473577,Pedra Rachada,Pedra Rachada,-22.76667,-43.06667,T,RK,BR,,21.0,,,,0,,1,America/Sao_Paulo,2012-12-06,Pedra Rachada,,,,,,,,,,,,,,,,,,,,,,,,,,,,,,,,,,,,,,,,,,,,,,,,,,,,,,,,,,,,,,,,,,
55438,3473579,Ponta de Itaoca,Ponta de Itaoca,-22.76667,-43.06667,T,PT,BR,,21.0,,,,0,,1,America/Sao_Paulo,2012-12-06,Ponta de Itaoca,,,,,,,,,,,,,,,,,,,,,,,,,,,,,,,,,,,,,,,,,,,,,,,,,,,,,,,,,,,,,,,,,,
55439,3473580,Baús,Baus,-22.76667,-43.06667,T,RKS,BR,,21.0,,,,0,,1,America/Sao_Paulo,2012-12-06,Baus,Baús,,,,,,,,,,,,,,,,,,,,,,,,,,,,,,,,,,,,,,,,,,,,,,,,,,,,,,,,,,,,,,,,,
55440,3473581,Pedra Branca,Pedra Branca,-22.75,-43.06667,T,RK,BR,,21.0,,,,0,,-9999,America/Sao_Paulo,2012-12-06,Pedra Branca,,,,,,,,,,,,,,,,,,,,,,,,,,,,,,,,,,,,,,,,,,,,,,,,,,,,,,,,,,,,,,,,,,
55442,3473583,Rio Guaxindiba,Rio Guaxindiba,-22.74734,-43.03197,H,STM,BR,,21.0,,,,0,,5,America/Sao_Paulo,2021-07-19,Rio Guaxindiba,,,,,,,,,,,,,,,,,,,,,,,,,,,,,,,,,,,,,,,,,,,,,,,,,,,,,,,,,,,,,,,,,,
55445,3473586,Porto da Madame,Porto da Madame,-22.83333,-43.1,L,PRT,BR,,21.0,,,,0,,2,America/Sao_Paulo,2012-12-06,Porto da Madame,,,,,,,,,,,,,,,,,,,,,,,,,,,,,,,,,,,,,,,,,,,,,,,,,,,,,,,,,,,,,,,,,,
55448,3473636,Cocotá,Cocota,-22.80633,-43.1814,P,PPL,BR,,21.0,3304557.0,,,0,,8,America/Sao_Paulo,2012-08-03,Cocota,Cocotá,,,,,,,,,,,,,,,,,,,,,,,,,,,,,,,,,,,,,,,,,,,,,,,,,,,,,,,,,,,,,,,,,
55449,3473637,Zumbi,Zumbi,-22.82248,-43.17626,P,PPL,BR,,21.0,3304557.0,,,0,,5,America/Sao_Paulo,2012-08-03,Zumbi,,,,,,,,,,,,,,,,,,,,,,,,,,,,,,,,,,,,,,,,,,,,,,,,,,,,,,,,,,,,,,,,,,
55452,3473641,Coroa Grande,Coroa Grande,-22.83333,-43.21667,H,SHOL,BR,,21.0,,,,0,,-9999,America/Sao_Paulo,2012-12-06,Coroa Grande,,,,,,,,,,,,,,,,,,,,,,,,,,,,,,,,,,,,,,,,,,,,,,,,,,,,,,,,,,,,,,,,,,
55453,3473642,Santa Cruz,Santa Cruz,-22.81667,-43.2,P,PPL,BR,,21.0,3304557.0,,,0,,13,America/Sao_Paulo,2012-12-06,Santa Cruz,,,,,,,,,,,,,,,,,,,,,,,,,,,,,,,,,,,,,,,,,,,,,,,,,,,,,,,,,,,,,,,,,,
55454,3473643,Enseada da Praia Grande,Enseada da Praia Grande,-22.89147,-43.13542,H,COVE,BR,,21.0,,,,0,,1,America/Sao_Paulo,2012-01-19,Enseada da Praia Grande,,,,,,,,,,,,,,,,,,,,,,,,,,,,,,,,,,,,,,,,,,,,,,,,,,,,,,,,,,,,,,,,,,
55457,3473646,São Domingos,Sao Domingos,-22.9,-43.13333,P,PPLX,BR,,21.0,3303302.0,,,0,,8,America/Sao_Paulo,2012-12-06,Sao Domingos,São Domingos,,,,,,,,,,,,,,,,,,,,,,,,,,,,,,,,,,,,,,,,,,,,,,,,,,,,,,,,,,,,,,,,,
55460,3473649,Pedra Tanhanga,Pedra Tanhanga,-23.0,-43.31667,T,HLL,BR,,21.0,3304557.0,,,0,,10,America/Sao_Paulo,2012-12-06,Pedra Tanhanga,,,,,,,,,,,,,,,,,,,,,,,,,,,,,,,,,,,,,,,,,,,,,,,,,,,,,,,,,,,,,,,,,,
55470,3473659,Baixo Surriá,Baixo Surria,-23.01667,-43.28333,H,SHOL,BR,,21.0,,,,0,,-9999,America/Sao_Paulo,2012-12-06,Baixo Surria,Baixo Surriá,,,,,,,,,,,,,,,,,,,,,,,,,,,,,,,,,,,,,,,,,,,,,,,,,,,,,,,,,,,,,,,,,
55471,3473660,Laje da Redonda,Laje da Redonda,-23.08141,-43.2085,T,RK,BR,,21.0,,,,0,,-9999,America/Sao_Paulo,2012-01-19,Laje da Redonda,,,,,,,,,,,,,,,,,,,,,,,,,,,,,,,,,,,,,,,,,,,,,,,,,,,,,,,,,,,,,,,,,,
55477,3473666,Laje da Cagarra,Laje da Cagarra,-23.02271,-43.18198,T,RK,BR,,21.0,,,,0,,-9999,America/Sao_Paulo,2012-01-19,Laje da Cagarra,,,,,,,,,,,,,,,,,,,,,,,,,,,,,,,,,,,,,,,,,,,,,,,,,,,,,,,,,,,,,,,,,,
55478,3473667,Ponta de Jurujuba,Ponta de Jurujuba,-22.92314,-43.12217,T,PT,BR,,21.0,3303302.0,,,0,,66,America/Sao_Paulo,2019-02-22,Ponta de Jurujuba,,,,,,,,,,,,,,,,,,,,,,,,,,,,,,,,,,,,,,,,,,,,,,,,,,,,,,,,,,,,,,,,,,
55479,3473668,Ponta de São João,Ponta de Sao Joao,-22.93877,-43.15202,T,PT,BR,,21.0,3304557.0,,,0,,-28,America/Sao_Paulo,2016-07-05,Ponta de Sao Joao,Ponta de São João,,,,,,,,,,,,,,,,,,,,,,,,,,,,,,,,,,,,,,,,,,,,,,,,,,,,,,,,,,,,,,,,,
55480,3473669,Ponta de Santa Cruz,Ponta de Santa Cruz,-22.93778,-43.13546,T,PT,BR,,21.0,3303302.0,,,0,,1,America/Sao_Paulo,2022-07-04,Ponta de Santa Cruz,,,,,,,,,,,,,,,,,,,,,,,,,,,,,,,,,,,,,,,,,,,,,,,,,,,,,,,,,,,,,,,,,,
55482,3473671,Ponta Tabaíba,Ponta Tabaiba,-22.94533,-43.12014,T,PT,BR,,21.0,3303302.0,,,0,,27,America/Sao_Paulo,2016-07-05,Fora Point,Ponta Tabaiba,Ponta Tabaíba,,,,,,,,,,,,,,,,,,,,,,,,,,,,,,,,,,,,,,,,,,,,,,,,,,,,,,,,,,,,,,,,
55484,3473673,Ilhas Duas Irmãs,Ilhas Duas Irmas,-22.95201,-43.11602,T,ISLS,BR,,21.0,3303302.0,,,0,,-9999,America/Sao_Paulo,2016-07-05,Ilhas Duas Irmas,Ilhas Duas Irmãs,,,,,,,,,,,,,,,,,,,,,,,,,,,,,,,,,,,,,,,,,,,,,,,,,,,,,,,,,,,,,,,,,
55485,3473674,Ponta Zé Mundongo,Ponta Ze Mundongo,-22.95,-43.11667,T,PT,BR,,21.0,,,,0,,-9999,America/Sao_Paulo,2012-12-06,Ponta Ze Mundongo,Ponta Zé Mundongo,,,,,,,,,,,,,,,,,,,,,,,,,,,,,,,,,,,,,,,,,,,,,,,,,,,,,,,,,,,,,,,,,
55487,3473676,Ilha do Veado,Ilha do Veado,-22.95594,-43.1034,T,ISL,BR,,21.0,3303302.0,,,0,,34,America/Sao_Paulo,2014-04-09,Ilha do Veado,,,,,,,,,,,,,,,,,,,,,,,,,,,,,,,,,,,,,,,,,,,,,,,,,,,,,,,,,,,,,,,,,,
55488,3473677,Ponta da Galheta,Ponta da Galheta,-22.96667,-43.1,T,PT,BR,,21.0,,,,0,,-9999,America/Sao_Paulo,2012-12-06,Ponta da Galheta,,,,,,,,,,,,,,,,,,,,,,,,,,,,,,,,,,,,,,,,,,,,,,,,,,,,,,,,,,,,,,,,,,
55492,3473681,Ponta da Furna do Mero,Ponta da Furna do Mero,-22.96667,-43.06667,T,PT,BR,,21.0,,,,0,,-9999,America/Sao_Paulo,2012-12-06,Ponta da Furna do Mero,,,,,,,,,,,,,,,,,,,,,,,,,,,,,,,,,,,,,,,,,,,,,,,,,,,,,,,,,,,,,,,,,,
55493,3473682,Praia de Itaipu,Praia de Itaipu,-22.96667,-43.06667,T,BCH,BR,,21.0,,,,0,,-9999,America/Sao_Paulo,2012-12-06,Praia de Itaipu,,,,,,,,,,,,,,,,,,,,,,,,,,,,,,,,,,,,,,,,,,,,,,,,,,,,,,,,,,,,,,,,,,
55494,3473683,Ilha da Menina,Ilha da Menina,-22.97876,-43.05378,T,ISL,BR,,21.0,,,,0,,28,America/Sao_Paulo,2019-02-22,Ilha da Menina,,,,,,,,,,,,,,,,,,,,,,,,,,,,,,,,,,,,,,,,,,,,,,,,,,,,,,,,,,,,,,,,,,
55496,3473685,Enseada do Bananal,Enseada do Bananal,-22.97833,-43.02101,H,COVE,BR,,21.0,,,,0,,-9999,America/Sao_Paulo,2019-02-22,Enseada do Bananal,,,,,,,,,,,,,,,,,,,,,,,,,,,,,,,,,,,,,,,,,,,,,,,,,,,,,,,,,,,,,,,,,,
55500,3473689,Ilha da Mãe Maria,Ilha da Mae Maria,-22.81978,-43.16301,T,ISL,BR,,21.0,,,,0,,-9999,America/Sao_Paulo,2012-01-19,Ilha Mae Maria,Ilha Mãe Maria,Ilha da Mae Maria,Ilha da Mãe Maria,,,,,,,,,,,,,,,,,,,,,,,,,,,,,,,,,,,,,,,,,,,,,,,,,,,,,,,,,,,,,,,
55501,3473690,Ilha dos Tavares,Ilha dos Tavares,-22.82346,-43.09752,T,ISL,BR,,21.0,3304904.0,,,0,,0,America/Sao_Paulo,2014-04-09,Ilha do Tavares,Ilha dos Tavares,,,,,,,,,,,,,,,,,,,,,,,,,,,,,,,,,,,,,,,,,,,,,,,,,,,,,,,,,,,,,,,,,
55502,3473691,Ponte Presidente Costa e Silva (Rio-Niterói),Ponte Presidente Costa e Silva (Rio-Niteroi),-22.86967,-43.17105,S,BDG,BR,,21.0,,,,0,,-9999,America/Sao_Paulo,2020-06-11,Ponte Presidente Costa e Silva,Ponte Presidente Costa e Silva (Rio-Niteroi),Ponte Presidente Costa e Silva (Rio-Niterói),,,,,,,,,,,,,,,,,,,,,,,,,,,,,,,,,,,,,,,,,,,,,,,,,,,,,,,,,,,,,,,,
55503,3473693,Ponta Saquarema,Ponta Saquarema,-23.0,-42.5,T,PT,BR,,21.0,,,,0,,-9999,America/Sao_Paulo,2018-12-05,Ponta Saquarema,,,,,,,,,,,,,,,,,,,,,,,,,,,,,,,,,,,,,,,,,,,,,,,,,,,,,,,,,,,,,,,,,,
55518,3473708,Baixo do Marobá,Baixo do Maroba,-21.25,-40.75,H,RF,BR,,1.0,,,,0,,-9999,America/Sao_Paulo,1996-04-09,,,,,,,,,,,,,,,,,,,,,,,,,,,,,,,,,,,,,,,,,,,,,,,,,,,,,,,,,,,,,,,,,,,
55521,3473711,Ilha Branca,Ilha Branca,-21.00179,-40.78573,T,ISL,BR,,1.0,,,,0,,-9999,America/Sao_Paulo,2022-11-11,Ihla Branca,Ilha Branca,,,,,,,,,,,,,,,,,,,,,,,,,,,,,,,,,,,,,,,,,,,,,,,,,,,,,,,,,,,,,,,,,
55522,3473712,Ponta do Guriri,Ponta do Guriri,-21.41667,-41.0,T,PT,BR,,21.0,,,,0,,-9999,America/Sao_Paulo,2012-12-06,Ponta do Guriri,,,,,,,,,,,,,,,,,,,,,,,,,,,,,,,,,,,,,,,,,,,,,,,,,,,,,,,,,,,,,,,,,,
55528,3473719,Tres Ilhas,Tres Ilhas,-20.66667,-40.33333,T,ISLS,BR,,1.0,,,,0,,-9999,America/Sao_Paulo,1996-04-09,,,,,,,,,,,,,,,,,,,,,,,,,,,,,,,,,,,,,,,,,,,,,,,,,,,,,,,,,,,,,,,,,,,
55529,3473720,Baixo do Una,Baixo do Una,-20.58333,-40.33333,H,RF,BR,,1.0,,,,0,,-9999,America/Sao_Paulo,1996-04-09,,,,,,,,,,,,,,,,,,,,,,,,,,,,,,,,,,,,,,,,,,,,,,,,,,,,,,,,,,,,,,,,,,,
55531,3473722,Morro da Boa Vista,Morro da Boa Vista,-20.5,-40.33333,S,TRIG,BR,,1.0,,,,0,,-9999,America/Sao_Paulo,2012-12-06,Morro da Boa Vista,,,,,,,,,,,,,,,,,,,,,,,,,,,,,,,,,,,,,,,,,,,,,,,,,,,,,,,,,,,,,,,,,,
55533,3473724,Ilhas dos Pacotes,Ilhas dos Pacotes,-20.33333,-40.25,T,ISLS,BR,,1.0,,,,0,,-9999,America/Sao_Paulo,2012-12-06,Ilhas dos Pacotes,,,,,,,,,,,,,,,,,,,,,,,,,,,,,,,,,,,,,,,,,,,,,,,,,,,,,,,,,,,,,,,,,,
55536,3473727,Baixo do Carapebus,Baixo do Carapebus,-20.25,-40.16667,H,RF,BR,,1.0,,,,0,,-9999,America/Sao_Paulo,1996-04-09,,,,,,,,,,,,,,,,,,,,,,,,,,,,,,,,,,,,,,,,,,,,,,,,,,,,,,,,,,,,,,,,,,,
55537,3473729,Barra do Rio Jacaraípe,Barra do Rio Jacaraipe,-20.16667,-40.16667,H,INLT,BR,,1.0,,,,0,,-9999,America/Sao_Paulo,1996-04-09,,,,,,,,,,,,,,,,,,,,,,,,,,,,,,,,,,,,,,,,,,,,,,,,,,,,,,,,,,,,,,,,,,,
55538,3473730,Barra do Almeida,Barra do Almeida,-20.08333,-40.16667,H,INLT,BR,,1.0,,,,0,,-9999,America/Sao_Paulo,2012-12-06,Barra do Almeida,,,,,,,,,,,,,,,,,,,,,,,,,,,,,,,,,,,,,,,,,,,,,,,,,,,,,,,,,,,,,,,,,,
55539,3473731,Banco Almirante Saldanha,Banco Almirante Saldanha,-22.33333,-37.58333,H,BNK,BR,,0.0,,,,0,,-9999,America/Sao_Paulo,1996-04-09,,,,,,,,,,,,,,,,,,,,,,,,,,,,,,,,,,,,,,,,,,,,,,,,,,,,,,,,,,,,,,,,,,,
55540,3473732,Banco Champlaim,Banco Champlaim,-20.33333,-37.58333,H,BNK,BR,,0.0,,,,0,,-9999,America/Bahia,1996-04-09,,,,,,,,,,,,,,,,,,,,,,,,,,,,,,,,,,,,,,,,,,,,,,,,,,,,,,,,,,,,,,,,,,,
55541,3473733,Banco Eclaireur,Banco Eclaireur,-20.08333,-37.41667,H,BNK,BR,,0.0,,,,0,,-9999,America/Noronha,1996-04-09,,,,,,,,,,,,,,,,,,,,,,,,,,,,,,,,,,,,,,,,,,,,,,,,,,,,,,,,,,,,,,,,,,,
55542,3473734,Banco Inverie,Banco Inverie,-17.8214,-37.57073,H,BNK,BR,,0.0,,,,0,,-9999,,2018-11-29,,,,,,,,,,,,,,,,,,,,,,,,,,,,,,,,,,,,,,,,,,,,,,,,,,,,,,,,,,,,,,,,,,,
55543,3473735,Banco Rodger,Banco Rodger,-17.13893,-36.88483,H,BNK,BR,,5.0,,,,0,,-9999,,2018-11-29,Rodger Bank,Rodger's Bank,,,,,,,,,,,,,,,,,,,,,,,,,,,,,,,,,,,,,,,,,,,,,,,,,,,,,,,,,,,,,,,,,
55546,3473738,Barra do Riacho,Barra do Riacho,-20.83333,-40.08333,H,INLT,BR,,1.0,,,,0,,-9999,America/Sao_Paulo,1996-04-09,,,,,,,,,,,,,,,,,,,,,,,,,,,,,,,,,,,,,,,,,,,,,,,,,,,,,,,,,,,,,,,,,,,
55547,3473739,Banco Pôpa Verde,Banco Popa Verde,-18.0,-39.0,H,BNK,BR,,0.0,,,,0,,-9999,America/Bahia,2012-12-06,Banco Popa Verde,Banco Pôpa Verde,,,,,,,,,,,,,,,,,,,,,,,,,,,,,,,,,,,,,,,,,,,,,,,,,,,,,,,,,,,,,,,,,
55548,3473740,Recife Califórnia,Recife California,-18.0,-39.0,H,RF,BR,,0.0,,,,0,,-9999,America/Bahia,2012-12-06,Recife California,Recife Califórnia,,,,,,,,,,,,,,,,,,,,,,,,,,,,,,,,,,,,,,,,,,,,,,,,,,,,,,,,,,,,,,,,,
55554,3473748,Barra de Belmonte,Barra de Belmonte,-15.83333,-38.83333,H,INLT,BR,,1.0,,,,0,,-9999,America/Bahia,2013-01-11,,,,,,,,,,,,,,,,,,,,,,,,,,,,,,,,,,,,,,,,,,,,,,,,,,,,,,,,,,,,,,,,,,,
55555,3473749,Banco Royal Charlotte,Banco Royal Charlotte,-16.10479,-38.29195,H,BNK,BR,,1.0,,,,0,,-9999,,2018-11-29,,,,,,,,,,,,,,,,,,,,,,,,,,,,,,,,,,,,,,,,,,,,,,,,,,,,,,,,,,,,,,,,,,,
55556,3473808,Ponta da Marambaia,Ponta da Marambaia,-32.00833,-52.095,T,PT,BR,,23.0,,,,0,,-9999,America/Sao_Paulo,2018-12-05,Ponta da Marambaia,,,,,,,,,,,,,,,,,,,,,,,,,,,,,,,,,,,,,,,,,,,,,,,,,,,,,,,,,,,,,,,,,,
55566,3473818,Coroa do Ladino,Coroa do Ladino,-32.03333,-52.06667,H,RF,BR,,23.0,,,,0,,-9999,America/Sao_Paulo,1996-06-20,,,,,,,,,,,,,,,,,,,,,,,,,,,,,,,,,,,,,,,,,,,,,,,,,,,,,,,,,,,,,,,,,,,
55568,3473820,Praia das Pombas,Praia das Pombas,-30.33333,-51.03333,T,BCH,BR,,23.0,,,,0,,1,America/Sao_Paulo,2018-12-05,Praia das Pombas,,,,,,,,,,,,,,,,,,,,,,,,,,,,,,,,,,,,,,,,,,,,,,,,,,,,,,,,,,,,,,,,,,
55573,3473825,Ponta da Mangueira,Ponta da Mangueira,-32.06102,-52.08561,T,PT,BR,,23.0,,,,0,,-9999,America/Sao_Paulo,2018-12-05,,,,,,,,,,,,,,,,,,,,,,,,,,,,,,,,,,,,,,,,,,,,,,,,,,,,,,,,,,,,,,,,,,,
55574,3473826,Coroa de Dona Mariana,Coroa de Dona Mariana,-32.09167,-52.075,H,SHOL,BR,,23.0,,,,0,,-9999,America/Sao_Paulo,1996-06-20,,,,,,,,,,,,,,,,,,,,,,,,,,,,,,,,,,,,,,,,,,,,,,,,,,,,,,,,,,,,,,,,,,,
55579,3473831,Coroa do Albano,Coroa do Albano,-30.3625,-51.05417,H,SHOL,BR,,23.0,,,,0,,-9999,America/Sao_Paulo,1996-05-06,,,,,,,,,,,,,,,,,,,,,,,,,,,,,,,,,,,,,,,,,,,,,,,,,,,,,,,,,,,,,,,,,,,
55580,3473832,Praia dos Molhes,Praia dos Molhes,-32.16667,-52.11667,T,BCH,BR,,23.0,,,,0,,-9999,America/Sao_Paulo,2018-12-05,Praia dos Molhes,,,,,,,,,,,,,,,,,,,,,,,,,,,,,,,,,,,,,,,,,,,,,,,,,,,,,,,,,,,,,,,,,,
55581,3473833,Coroa do Pontalzinho,Coroa do Pontalzinho,-30.35833,-51.125,H,SHOL,BR,,23.0,,,,0,,-9999,America/Sao_Paulo,1996-05-06,,,,,,,,,,,,,,,,,,,,,,,,,,,,,,,,,,,,,,,,,,,,,,,,,,,,,,,,,,,,,,,,,,,
55587,3473839,Ponta dos Pescadores,Ponta dos Pescadores,-32.12749,-52.09106,T,PT,BR,,23.0,4318507.0,,,0,,1,America/Sao_Paulo,2018-12-05,,,,,,,,,,,,,,,,,,,,,,,,,,,,,,,,,,,,,,,,,,,,,,,,,,,,,,,,,,,,,,,,,,,
55589,3473841,Ponta do Retiro,Ponta do Retiro,-31.98,-52.05333,T,PT,BR,,23.0,4318507.0,,,0,,2,America/Sao_Paulo,2018-12-05,Ponta do Retiro,,,,,,,,,,,,,,,,,,,,,,,,,,,,,,,,,,,,,,,,,,,,,,,,,,,,,,,,,,,,,,,,,,
55592,3473844,Ilha das Pombas,Ilha das Pombas,-32.025,-52.13333,T,ISL,BR,,23.0,,,,0,,1,America/Sao_Paulo,2018-12-05,Ilha das Pombas,,,,,,,,,,,,,,,,,,,,,,,,,,,,,,,,,,,,,,,,,,,,,,,,,,,,,,,,,,,,,,,,,,
55593,3473845,Ilha dos Mosquitos,Ilha dos Mosquitos,-31.96667,-52.11333,T,ISL,BR,,23.0,,,,0,,-9999,America/Sao_Paulo,2018-12-05,Ilha dos Mosquitos,,,,,,,,,,,,,,,,,,,,,,,,,,,,,,,,,,,,,,,,,,,,,,,,,,,,,,,,,,,,,,,,,,
55594,3473846,Ilha dos Carneiros,Ilha dos Carneiros,-31.795,-52.13333,T,ISL,BR,,23.0,,,,0,,-9999,America/Sao_Paulo,2018-12-05,Ilha dos Carneiros,,,,,,,,,,,,,,,,,,,,,,,,,,,,,,,,,,,,,,,,,,,,,,,,,,,,,,,,,,,,,,,,,,
55596,3473848,Ponta do Arraial,Ponta do Arraial,-31.795,-52.11333,T,PT,BR,,23.0,,,,0,,1,America/Sao_Paulo,2018-12-05,Ponta do Arraial,,,,,,,,,,,,,,,,,,,,,,,,,,,,,,,,,,,,,,,,,,,,,,,,,,,,,,,,,,,,,,,,,,
55597,3473849,Baixio do Diamante,Baixio do Diamante,-31.95,-52.08333,H,SHOL,BR,,23.0,,,,0,,-9999,America/Sao_Paulo,1996-06-05,,,,,,,,,,,,,,,,,,,,,,,,,,,,,,,,,,,,,,,,,,,,,,,,,,,,,,,,,,,,,,,,,,,
55601,3473853,Baixio do Estreito,Baixio do Estreito,-31.80167,-51.87,H,SHOL,BR,,23.0,,,,0,,-9999,America/Sao_Paulo,1996-06-05,,,,,,,,,,,,,,,,,,,,,,,,,,,,,,,,,,,,,,,,,,,,,,,,,,,,,,,,,,,,,,,,,,,
55602,3473854,Ilha Marechal Deodoro,Ilha Marechal Deodoro,-31.71,-51.96,T,ISL,BR,,23.0,,,,0,,-9999,America/Sao_Paulo,2018-12-05,Ilha Marechal Deodoro,,,,,,,,,,,,,,,,,,,,,,,,,,,,,,,,,,,,,,,,,,,,,,,,,,,,,,,,,,,,,,,,,,
55603,3473855,Ponta da Feitoria,Ponta da Feitoria,-31.695,-52.03333,T,PT,BR,,23.0,4314407.0,,,0,,5,America/Sao_Paulo,2018-12-05,Ponta da Feitoria,,,,,,,,,,,,,,,,,,,,,,,,,,,,,,,,,,,,,,,,,,,,,,,,,,,,,,,,,,,,,,,,,,
55605,3473857,Coroa dos Patos,Coroa dos Patos,-31.70333,-52.08333,H,SHOL,BR,,23.0,,,,0,,-9999,America/Sao_Paulo,1996-06-05,,,,,,,,,,,,,,,,,,,,,,,,,,,,,,,,,,,,,,,,,,,,,,,,,,,,,,,,,,,,,,,,,,,
55606,3473858,Coroa do Nascimento,Coroa do Nascimento,-31.73,-52.1,H,SHOL,BR,,23.0,,,,0,,-9999,America/Sao_Paulo,1996-06-05,,,,,,,,,,,,,,,,,,,,,,,,,,,,,,,,,,,,,,,,,,,,,,,,,,,,,,,,,,,,,,,,,,,
55607,3473859,Serrinha,Serrinha,-30.38333,-51.10833,T,RDGE,BR,,23.0,,,,0,,-9999,America/Sao_Paulo,1996-05-06,,,,,,,,,,,,,,,,,,,,,,,,,,,,,,,,,,,,,,,,,,,,,,,,,,,,,,,,,,,,,,,,,,,
55609,3473861,Coroa da Ilhota,Coroa da Ilhota,-30.38333,-51.09167,H,SHOL,BR,,23.0,,,,0,,-9999,America/Sao_Paulo,1996-05-06,,,,,,,,,,,,,,,,,,,,,,,,,,,,,,,,,,,,,,,,,,,,,,,,,,,,,,,,,,,,,,,,,,,
55610,3473862,Coroa dos Holandeses,Coroa dos Holandeses,-30.36667,-51.06389,H,SHOL,BR,,23.0,,,,0,,-9999,America/Sao_Paulo,1996-05-06,,,,,,,,,,,,,,,,,,,,,,,,,,,,,,,,,,,,,,,,,,,,,,,,,,,,,,,,,,,,,,,,,,,
55611,3473863,Coroa do Campista,Coroa do Campista,-30.37917,-51.05417,H,SHOL,BR,,23.0,,,,0,,1,America/Sao_Paulo,1996-05-06,,,,,,,,,,,,,,,,,,,,,,,,,,,,,,,,,,,,,,,,,,,,,,,,,,,,,,,,,,,,,,,,,,,
55612,3473864,Canal do Campista,Canal do Campista,-30.38333,-51.05833,H,CHNM,BR,,23.0,,,,0,,1,America/Sao_Paulo,1996-05-06,,,,,,,,,,,,,,,,,,,,,,,,,,,,,,,,,,,,,,,,,,,,,,,,,,,,,,,,,,,,,,,,,,,
55619,3473871,Tabuleiro de Itapuã,Tabuleiro de Itapua,-30.40833,-51.08333,H,SHOL,BR,,23.0,,,,0,,-9999,America/Sao_Paulo,1996-05-06,,,,,,,,,,,,,,,,,,,,,,,,,,,,,,,,,,,,,,,,,,,,,,,,,,,,,,,,,,,,,,,,,,,
55620,3473872,Pontal da Formiga,Pontal da Formiga,-30.41111,-51.11944,T,PT,BR,,23.0,,,,0,,-9999,America/Sao_Paulo,2018-12-05,Pontal da Formiga,,,,,,,,,,,,,,,,,,,,,,,,,,,,,,,,,,,,,,,,,,,,,,,,,,,,,,,,,,,,,,,,,,
55621,3473873,Canalete dos Pescadores,Canalete dos Pescadores,-30.41667,-51.12083,H,CHN,BR,,23.0,,,,0,,-9999,America/Sao_Paulo,1996-05-06,,,,,,,,,,,,,,,,,,,,,,,,,,,,,,,,,,,,,,,,,,,,,,,,,,,,,,,,,,,,,,,,,,,
55622,3473874,Praia da Formiga,Praia da Formiga,-30.425,-51.125,T,BCH,BR,,23.0,,,,0,,-9999,America/Sao_Paulo,2018-12-05,Praia da Formiga,,,,,,,,,,,,,,,,,,,,,,,,,,,,,,,,,,,,,,,,,,,,,,,,,,,,,,,,,,,,,,,,,,
55623,3473875,Coroa do Morro,Coroa do Morro,-30.43056,-51.12083,H,SHOL,BR,,23.0,,,,0,,-9999,America/Sao_Paulo,1996-05-06,,,,,,,,,,,,,,,,,,,,,,,,,,,,,,,,,,,,,,,,,,,,,,,,,,,,,,,,,,,,,,,,,,,
55627,3473879,Ilha do Veado,Ilha do Veado,-30.43333,-51.15833,T,ISL,BR,,23.0,,,,0,,-9999,America/Sao_Paulo,2018-12-05,Ilha do Veado,,,,,,,,,,,,,,,,,,,,,,,,,,,,,,,,,,,,,,,,,,,,,,,,,,,,,,,,,,,,,,,,,,
55629,3473881,Ponta de Cima,Ponta de Cima,-30.47202,-51.14688,T,PT,BR,,23.0,4301909.0,,,0,,3,America/Sao_Paulo,2018-12-05,,,,,,,,,,,,,,,,,,,,,,,,,,,,,,,,,,,,,,,,,,,,,,,,,,,,,,,,,,,,,,,,,,,
55631,3473883,Banco do Barba Negra,Banco do Barba Negra,-30.51595,-51.15245,H,SHOL,BR,,23.0,,,,0,,-9999,America/Sao_Paulo,2018-12-05,,,,,,,,,,,,,,,,,,,,,,,,,,,,,,,,,,,,,,,,,,,,,,,,,,,,,,,,,,,,,,,,,,,
55632,3473884,Canalete da Feitoria,Canalete da Feitoria,-31.695,-51.9675,H,CHN,BR,,23.0,,,,0,,-9999,America/Sao_Paulo,1996-06-05,,,,,,,,,,,,,,,,,,,,,,,,,,,,,,,,,,,,,,,,,,,,,,,,,,,,,,,,,,,,,,,,,,,
55633,3473885,Canalete das Cabritas,Canalete das Cabritas,-31.69,-52.00333,H,CHN,BR,,23.0,,,,0,,-9999,America/Sao_Paulo,1996-06-05,,,,,,,,,,,,,,,,,,,,,,,,,,,,,,,,,,,,,,,,,,,,,,,,,,,,,,,,,,,,,,,,,,,
55634,3473886,Banco das Cabritas,Banco das Cabritas,-31.65333,-51.95833,H,SHOL,BR,,23.0,,,,0,,-9999,America/Sao_Paulo,1996-06-05,,,,,,,,,,,,,,,,,,,,,,,,,,,,,,,,,,,,,,,,,,,,,,,,,,,,,,,,,,,,,,,,,,,
55657,3473910,Saco de Santa Cruz,Saco de Santa Cruz,-30.02735,-51.2858,H,BAY,BR,,23.0,,,,0,,-9999,America/Sao_Paulo,2021-04-10,Saco de Santa Cruz,,,,,,,,,,,,,,,,,,,,,,,,,,,,,,,,,,,,,,,,,,,,,,,,,,,,,,,,,,,,,,,,,,
55658,3473911,Arroio da Pintada,Arroio da Pintada,-30.02889,-51.26964,H,STM,BR,,23.0,,,,0,,1,America/Sao_Paulo,2021-04-10,Arroio da Pintada,,,,,,,,,,,,,,,,,,,,,,,,,,,,,,,,,,,,,,,,,,,,,,,,,,,,,,,,,,,,,,,,,,
55671,3473924,Coroa das Balseiras,Coroa das Balseiras,-30.0625,-51.26667,H,SHOL,BR,,23.0,,,,0,,-9999,America/Sao_Paulo,1996-08-14,,,,,,,,,,,,,,,,,,,,,,,,,,,,,,,,,,,,,,,,,,,,,,,,,,,,,,,,,,,,,,,,,,,
55675,3473928,Canal do Cristal,Canal do Cristal,-30.06291,-51.25147,H,CHN,BR,,23.0,,,,0,,-9999,America/Sao_Paulo,2021-04-10,Canal do Cristal,,,,,,,,,,,,,,,,,,,,,,,,,,,,,,,,,,,,,,,,,,,,,,,,,,,,,,,,,,,,,,,,,,
55676,3473929,Pedras do Cristal,Pedras do Cristal,-30.05833,-51.24167,H,RF,BR,,23.0,,,,0,,-9999,America/Sao_Paulo,1996-08-14,,,,,,,,,,,,,,,,,,,,,,,,,,,,,,,,,,,,,,,,,,,,,,,,,,,,,,,,,,,,,,,,,,,
55700,3473953,Arroio Dilúvio,Arroio Diluvio,-30.04735,-51.23343,H,STM,BR,,23.0,,,,0,,3,America/Sao_Paulo,2021-04-10,Arroio Diluvio,Arroio Dilúvio,,,,,,,,,,,,,,,,,,,,,,,,,,,,,,,,,,,,,,,,,,,,,,,,,,,,,,,,,,,,,,,,,
55713,3473966,Canal das Pedras Brancas,Canal das Pedras Brancas,-30.1,-51.275,H,CHN,BR,,23.0,,,,0,,1,America/Sao_Paulo,2020-07-10,,,,,,,,,,,,,,,,,,,,,,,,,,,,,,,,,,,,,,,,,,,,,,,,,,,,,,,,,,,,,,,,,,,
55714,3473967,Ponta do Dionízio,Ponta do Dionizio,-30.10384,-51.26723,T,PT,BR,,23.0,,,,0,,1,America/Sao_Paulo,2018-12-05,,,,,,,,,,,,,,,,,,,,,,,,,,,,,,,,,,,,,,,,,,,,,,,,,,,,,,,,,,,,,,,,,,,
55725,3473978,Ponta da Alegria,Ponta da Alegria,-30.13426,-51.30663,T,PT,BR,,23.0,,,,0,,8,America/Sao_Paulo,2021-04-10,Ponta da Alegria,,,,,,,,,,,,,,,,,,,,,,,,,,,,,,,,,,,,,,,,,,,,,,,,,,,,,,,,,,,,,,,,,,
55726,3473979,Canal do Leitão,Canal do Leitao,-30.18333,-51.275,H,CHN,BR,,23.0,,,,0,,-9999,America/Sao_Paulo,2020-07-10,,,,,,,,,,,,,,,,,,,,,,,,,,,,,,,,,,,,,,,,,,,,,,,,,,,,,,,,,,,,,,,,,,,
55733,3473986,Coroa da Figueira,Coroa da Figueira,-30.17917,-51.3,H,SHOL,BR,,23.0,,,,0,,-9999,America/Sao_Paulo,1996-08-14,,,,,,,,,,,,,,,,,,,,,,,,,,,,,,,,,,,,,,,,,,,,,,,,,,,,,,,,,,,,,,,,,,,
55734,3473987,Ponta da Figueira,Ponta da Figueira,-30.17917,-51.30556,T,PT,BR,,23.0,,,,0,,-9999,America/Sao_Paulo,2018-12-05,Ponta da Figueira,,,,,,,,,,,,,,,,,,,,,,,,,,,,,,,,,,,,,,,,,,,,,,,,,,,,,,,,,,,,,,,,,,
55735,3473988,Baleias da Ponta Grossa,Baleias da Ponta Grossa,-30.18634,-51.25511,T,ISLS,BR,,23.0,4314902.0,,,0,,-9999,America/Sao_Paulo,2018-12-05,,,,,,,,,,,,,,,,,,,,,,,,,,,,,,,,,,,,,,,,,,,,,,,,,,,,,,,,,,,,,,,,,,,
55737,3473990,Coroa do Jacaré,Coroa do Jacare,-30.225,-51.28333,H,SHOL,BR,,23.0,,,,0,,-9999,America/Sao_Paulo,1996-08-14,,,,,,,,,,,,,,,,,,,,,,,,,,,,,,,,,,,,,,,,,,,,,,,,,,,,,,,,,,,,,,,,,,,
55738,3473991,Pedras de Belém Novo,Pedras de Belem Novo,-30.22639,-51.2,T,RKS,BR,,23.0,,,,0,,-9999,America/Sao_Paulo,1996-08-14,,,,,,,,,,,,,,,,,,,,,,,,,,,,,,,,,,,,,,,,,,,,,,,,,,,,,,,,,,,,,,,,,,,
55742,3473995,Pedras do Arado,Pedras do Arado,-30.22778,-51.19167,T,RKS,BR,,23.0,,,,0,,-9999,America/Sao_Paulo,1996-08-14,,,,,,,,,,,,,,,,,,,,,,,,,,,,,,,,,,,,,,,,,,,,,,,,,,,,,,,,,,,,,,,,,,,
55750,3474003,Laje da Pescada,Laje da Pescada,-25.49465,-48.28812,H,RF,BR,,18.0,,,,0,,-9999,America/Sao_Paulo,2012-01-19,Laje da Pescada,Pedras da Pescada,,,,,,,,,,,,,,,,,,,,,,,,,,,,,,,,,,,,,,,,,,,,,,,,,,,,,,,,,,,,,,,,,
55752,3474005,Portão do Norte,Portao do Norte,-25.50167,-48.29611,T,RKS,BR,,18.0,,,,0,,-9999,America/Sao_Paulo,1996-06-05,,,,,,,,,,,,,,,,,,,,,,,,,,,,,,,,,,,,,,,,,,,,,,,,,,,,,,,,,,,,,,,,,,,
55770,3474023,Banco da Galheta,Banco da Galheta,-25.59167,-48.33833,H,SHOL,BR,,18.0,,,,0,,-9999,America/Sao_Paulo,1996-06-05,,,,,,,,,,,,,,,,,,,,,,,,,,,,,,,,,,,,,,,,,,,,,,,,,,,,,,,,,,,,,,,,,,,
55780,3474033,Ponta de Nhá Pina,Ponta de Nha Pina,-25.56667,-48.29833,T,PT,BR,,18.0,4118204.0,,,0,,-9999,America/Sao_Paulo,2018-12-05,Ponta de Nha Pina,Ponta de Nhá Pina,,,,,,,,,,,,,,,,,,,,,,,,,,,,,,,,,,,,,,,,,,,,,,,,,,,,,,,,,,,,,,,,,
55786,3474039,Ponta do Joaquim,Ponta do Joaquim,-25.54667,-48.29,T,PT,BR,,18.0,,,,0,,-9999,America/Sao_Paulo,2018-12-05,Ponta do Joaquim,,,,,,,,,,,,,,,,,,,,,,,,,,,,,,,,,,,,,,,,,,,,,,,,,,,,,,,,,,,,,,,,,,
55819,3474072,Ondina,Ondina,-13.00994,-38.51224,P,PPLX,BR,,5.0,2927408.0,,,0,,16,America/Bahia,2019-12-04,Ondina,,,,,,,,,,,,,,,,,,,,,,,,,,,,,,,,,,,,,,,,,,,,,,,,,,,,,,,,,,,,,,,,,,
55824,3474077,Forte de Santo Antônio do Barra,Forte de Santo Antonio do Barra,-13.01,-38.53167,S,FT,BR,,5.0,2927408.0,,,0,,11,America/Bahia,2012-08-03,,,,,,,,,,,,,,,,,,,,,,,,,,,,,,,,,,,,,,,,,,,,,,,,,,,,,,,,,,,,,,,,,,,
55828,3474166,Ponta do Norte,Ponta do Norte,-20.48681,-29.33846,T,PT,BR,,8.0,,,,0,,4,America/Noronha,2017-12-26,,,,,,,,,,,,,,,,,,,,,,,,,,,,,,,,,,,,,,,,,,,,,,,,,,,,,,,,,,,,,,,,,,,
55829,3474167,Praia dos Cabritos,Praia dos Cabritos,-20.4943,-29.33074,T,BCH,BR,,8.0,3205309.0,,,0,,9,America/Noronha,2017-12-26,,,,,,,,,,,,,,,,,,,,,,,,,,,,,,,,,,,,,,,,,,,,,,,,,,,,,,,,,,,,,,,,,,,
55830,3474168,Ponta do Noroeste,Ponta do Noroeste,-20.49493,-29.34475,T,PT,BR,,8.0,3205309.0,,,0,,47,America/Noronha,2017-12-26,,,,,,,,,,,,,,,,,,,,,,,,,,,,,,,,,,,,,,,,,,,,,,,,,,,,,,,,,,,,,,,,,,,
55831,3474169,Ponta do Monumento,Ponta do Monumento,-20.50207,-29.34422,T,PT,BR,,8.0,3205309.0,,,0,,105,America/Noronha,2017-12-26,,,,,,,,,,,,,,,,,,,,,,,,,,,,,,,,,,,,,,,,,,,,,,,,,,,,,,,,,,,,,,,,,,,
55832,3474170,Obelisco,Obelisco,-20.49479,-29.33705,T,PK,BR,,8.0,3205309.0,,,0,,344,America/Noronha,2017-12-26,,,,,,,,,,,,,,,,,,,,,,,,,,,,,,,,,,,,,,,,,,,,,,,,,,,,,,,,,,,,,,,,,,,
55833,3474171,Pico Monumento,Pico Monumento,-20.50075,-29.34324,T,PK,BR,,8.0,3205309.0,,,0,,105,America/Noronha,2017-12-26,,,,,,,,,,,,,,,,,,,,,,,,,,,,,,,,,,,,,,,,,,,,,,,,,,,,,,,,,,,,,,,,,,,
55834,3474172,Ponta do Valado,Ponta do Valado,-20.49881,-29.32224,T,PT,BR,,8.0,3205309.0,,,0,,20,America/Noronha,2017-12-26,,,,,,,,,,,,,,,,,,,,,,,,,,,,,,,,,,,,,,,,,,,,,,,,,,,,,,,,,,,,,,,,,,,
55835,3474173,Pedra do Tubarão,Pedra do Tubarao,-20.50105,-29.32042,T,RK,BR,,8.0,3205309.0,,,0,,25,America/Noronha,2017-12-26,,,,,,,,,,,,,,,,,,,,,,,,,,,,,,,,,,,,,,,,,,,,,,,,,,,,,,,,,,,,,,,,,,,
55836,3474174,Praia dos Portuguêses,Praia dos Portugueses,-20.50585,-29.31727,T,BCH,BR,,8.0,3205309.0,,,0,,15,America/Noronha,2017-12-26,,,,,,,,,,,,,,,,,,,,,,,,,,,,,,,,,,,,,,,,,,,,,,,,,,,,,,,,,,,,,,,,,,,
55837,3474175,Ilha da Racha,Ilha da Racha,-20.50697,-29.34713,T,ISL,BR,,8.0,3205309.0,,,0,,105,America/Noronha,2017-12-26,,,,,,,,,,,,,,,,,,,,,,,,,,,,,,,,,,,,,,,,,,,,,,,,,,,,,,,,,,,,,,,,,,,
55838,3474176,Pico São Bonifácio,Pico Sao Bonifacio,-20.50471,-29.33631,T,PK,BR,,8.0,3205309.0,,,0,,446,America/Noronha,2017-12-26,,,,,,,,,,,,,,,,,,,,,,,,,,,,,,,,,,,,,,,,,,,,,,,,,,,,,,,,,,,,,,,,,,,
55839,3474177,Pico Trindade,Pico Trindade,-20.5078,-29.33268,T,PK,BR,,8.0,3205309.0,,,0,,520,America/Noronha,2017-12-26,,,,,,,,,,,,,,,,,,,,,,,,,,,,,,,,,,,,,,,,,,,,,,,,,,,,,,,,,,,,,,,,,,,
55840,3474178,Pico Desejado,Pico Desejado,-20.50833,-29.32333,T,PK,BR,,8.0,3205309.0,,,0,,413,America/Noronha,2012-08-03,,,,,,,,,,,,,,,,,,,,,,,,,,,,,,,,,,,,,,,,,,,,,,,,,,,,,,,,,,,,,,,,,,,
55841,3474179,Pico Verde,Pico Verde,-20.51167,-29.32333,T,PK,BR,,8.0,3205309.0,,,0,,502,America/Noronha,2012-08-03,,,,,,,,,,,,,,,,,,,,,,,,,,,,,,,,,,,,,,,,,,,,,,,,,,,,,,,,,,,,,,,,,,,
55842,3474180,Pico Supe,Pico Supe,-20.51,-29.32333,T,PK,BR,,8.0,3205309.0,,,0,,463,America/Noronha,2012-08-03,,,,,,,,,,,,,,,,,,,,,,,,,,,,,,,,,,,,,,,,,,,,,,,,,,,,,,,,,,,,,,,,,,,
55843,3474181,Pico Grazinas,Pico Grazinas,-20.51161,-29.3196,T,PK,BR,,8.0,3205309.0,,,0,,350,America/Noronha,2017-12-26,,,,,,,,,,,,,,,,,,,,,,,,,,,,,,,,,,,,,,,,,,,,,,,,,,,,,,,,,,,,,,,,,,,
55844,3474182,Morro Vermelho,Morro Vermelho,-20.51292,-29.32071,T,MT,BR,,8.0,3205309.0,,,0,,416,America/Noronha,2017-12-26,,,,,,,,,,,,,,,,,,,,,,,,,,,,,,,,,,,,,,,,,,,,,,,,,,,,,,,,,,,,,,,,,,,
55845,3474183,Pico Castelo,Pico Castelo,-20.51493,-29.31651,T,PK,BR,,8.0,3205309.0,,,0,,275,America/Noronha,2017-12-26,,,,,,,,,,,,,,,,,,,,,,,,,,,,,,,,,,,,,,,,,,,,,,,,,,,,,,,,,,,,,,,,,,,
55846,3474184,Pico Pontudo,Pico Pontudo,-20.51079,-29.31726,T,PK,BR,,8.0,3205309.0,,,0,,197,America/Noronha,2017-12-26,,,,,,,,,,,,,,,,,,,,,,,,,,,,,,,,,,,,,,,,,,,,,,,,,,,,,,,,,,,,,,,,,,,
55847,3474185,Forte Portuguêses,Forte Portugueses,-20.50802,-29.3159,S,TRIG,BR,,8.0,3205309.0,,,0,,45,America/Noronha,2017-12-26,,,,,,,,,,,,,,,,,,,,,,,,,,,,,,,,,,,,,,,,,,,,,,,,,,,,,,,,,,,,,,,,,,,
55848,3474186,Pico Preto,Pico Preto,-20.50862,-29.31303,T,PK,BR,,8.0,3205309.0,,,0,,25,America/Noronha,2017-12-26,,,,,,,,,,,,,,,,,,,,,,,,,,,,,,,,,,,,,,,,,,,,,,,,,,,,,,,,,,,,,,,,,,,
55849,3474187,Marco do Andrada,Marco do Andrada,-20.51292,-29.30749,S,TRIG,BR,,8.0,3205309.0,,,0,,16,America/Noronha,2017-12-26,,,,,,,,,,,,,,,,,,,,,,,,,,,,,,,,,,,,,,,,,,,,,,,,,,,,,,,,,,,,,,,,,,,
55850,3474188,Praia do Andrada,Praia do Andrada,-20.51378,-29.30658,T,BCH,BR,,8.0,3205309.0,,,0,,12,America/Noronha,2017-12-26,,,,,,,,,,,,,,,,,,,,,,,,,,,,,,,,,,,,,,,,,,,,,,,,,,,,,,,,,,,,,,,,,,,
55851,3474189,Morro das Tartarugas,Morro das Tartarugas,-20.51574,-29.30565,T,MT,BR,,8.0,3205309.0,,,0,,33,America/Noronha,2017-12-26,,,,,,,,,,,,,,,,,,,,,,,,,,,,,,,,,,,,,,,,,,,,,,,,,,,,,,,,,,,,,,,,,,,
55852,3474190,Praia das Tartarugas,Praia das Tartarugas,-20.51699,-29.30381,T,BCH,BR,,8.0,3205309.0,,,0,,7,America/Noronha,2017-12-26,,,,,,,,,,,,,,,,,,,,,,,,,,,,,,,,,,,,,,,,,,,,,,,,,,,,,,,,,,,,,,,,,,,
55853,3474191,Pico Nossa Senhora de Lourdes,Pico Nossa Senhora de Lourdes,-20.51644,-29.30806,T,PK,BR,,8.0,3205309.0,,,0,,141,America/Noronha,2017-12-26,,,,,,,,,,,,,,,,,,,,,,,,,,,,,,,,,,,,,,,,,,,,,,,,,,,,,,,,,,,,,,,,,,,
55854,3474192,Pico do Vigia,Pico do Vigia,-20.51818,-29.30909,T,PK,BR,,8.0,3205309.0,,,0,,144,America/Noronha,2017-12-26,,,,,,,,,,,,,,,,,,,,,,,,,,,,,,,,,,,,,,,,,,,,,,,,,,,,,,,,,,,,,,,,,,,
55855,3474193,Parcel das Tartarugas,Parcel das Tartarugas,-20.51792,-29.29654,H,SHOL,BR,,8.0,,,,0,,7,America/Noronha,2017-12-26,,,,,,,,,,,,,,,,,,,,,,,,,,,,,,,,,,,,,,,,,,,,,,,,,,,,,,,,,,,,,,,,,,,
55856,3474194,Ponta das Tartarugas,Ponta das Tartarugas,-20.51893,-29.29916,T,PT,BR,,8.0,,,,0,,6,America/Noronha,2017-12-26,,,,,,,,,,,,,,,,,,,,,,,,,,,,,,,,,,,,,,,,,,,,,,,,,,,,,,,,,,,,,,,,,,,
55857,3474195,Praia do Príncipe,Praia do Principe,-20.5197,-29.31308,T,BCH,BR,,8.0,,,,0,,10,America/Noronha,2017-12-26,,,,,,,,,,,,,,,,,,,,,,,,,,,,,,,,,,,,,,,,,,,,,,,,,,,,,,,,,,,,,,,,,,,
55858,3474196,Pão de Açúcar,Pao de Acucar,-20.52125,-29.30836,T,PK,BR,,8.0,,,,0,,63,America/Noronha,2017-12-26,,,,,,,,,,,,,,,,,,,,,,,,,,,,,,,,,,,,,,,,,,,,,,,,,,,,,,,,,,,,,,,,,,,
55859,3474197,Baixos do Sueste,Baixos do Sueste,-20.52339,-29.30062,H,RF,BR,,8.0,,,,0,,-9999,America/Noronha,2017-12-26,,,,,,,,,,,,,,,,,,,,,,,,,,,,,,,,,,,,,,,,,,,,,,,,,,,,,,,,,,,,,,,,,,,
55860,3474198,Ponta do Tunel,Ponta do Tunel,-20.5257,-29.29972,T,PT,BR,,8.0,,,,0,,2,America/Noronha,2017-12-26,,,,,,,,,,,,,,,,,,,,,,,,,,,,,,,,,,,,,,,,,,,,,,,,,,,,,,,,,,,,,,,,,,,
55861,3474199,Laje do Paredão,Laje do Paredao,-20.52567,-29.30681,H,RF,BR,,8.0,,,,0,,6,America/Noronha,2017-12-26,,,,,,,,,,,,,,,,,,,,,,,,,,,,,,,,,,,,,,,,,,,,,,,,,,,,,,,,,,,,,,,,,,,
55862,3474200,Morro do Paredão,Morro do Paredao,-20.52638,-29.30245,T,MT,BR,,8.0,,,,0,,8,America/Noronha,2017-12-26,,,,,,,,,,,,,,,,,,,,,,,,,,,,,,,,,,,,,,,,,,,,,,,,,,,,,,,,,,,,,,,,,,,
55863,3474201,Fonte do Barril,Fonte do Barril,-20.52106,-29.3163,H,SPNG,BR,,8.0,,,,0,,52,America/Noronha,2017-12-26,,,,,,,,,,,,,,,,,,,,,,,,,,,,,,,,,,,,,,,,,,,,,,,,,,,,,,,,,,,,,,,,,,,
55864,3474202,Ponta do Príncipe,Ponta do Principe,-20.52316,-29.31726,T,PT,BR,,8.0,,,,0,,11,America/Noronha,2017-12-26,,,,,,,,,,,,,,,,,,,,,,,,,,,,,,,,,,,,,,,,,,,,,,,,,,,,,,,,,,,,,,,,,,,
55865,3474203,Pedra do Meio,Pedra do Meio,-20.52411,-29.31369,T,RK,BR,,8.0,,,,0,,-9999,America/Noronha,2017-12-26,,,,,,,,,,,,,,,,,,,,,,,,,,,,,,,,,,,,,,,,,,,,,,,,,,,,,,,,,,,,,,,,,,,
55866,3474205,Ponta do Sul,Ponta do Sul,-20.52519,-29.32265,T,PT,BR,,8.0,,,,0,,9,America/Noronha,2017-12-26,,,,,,,,,,,,,,,,,,,,,,,,,,,,,,,,,,,,,,,,,,,,,,,,,,,,,,,,,,,,,,,,,,,
55867,3474206,Ilha do Sul,Ilha do Sul,-20.5291,-29.32498,T,ISL,BR,,8.0,,,,0,,-9999,America/Noronha,2017-12-26,,,,,,,,,,,,,,,,,,,,,,,,,,,,,,,,,,,,,,,,,,,,,,,,,,,,,,,,,,,,,,,,,,,
56295,3474639,Ilha do Raimundo,Ilha do Raimundo,-22.82546,-43.25858,T,ISL,BR,,21.0,,,,0,,0,America/Sao_Paulo,2012-01-19,Ilha do Raimundo,,,,,,,,,,,,,,,,,,,,,,,,,,,,,,,,,,,,,,,,,,,,,,,,,,,,,,,,,,,,,,,,,,
56298,3474642,Ilha Santa Rosa,Ilha Santa Rosa,-22.82448,-43.25487,T,ISL,BR,,21.0,,,,0,,1,America/Sao_Paulo,2012-01-19,Ilha Santa Rosa,,,,,,,,,,,,,,,,,,,,,,,,,,,,,,,,,,,,,,,,,,,,,,,,,,,,,,,,,,,,,,,,,,
56398,3474744,Morro da Covanca,Morro da Covanca,-22.75439,-43.1069,T,HLL,BR,,21.0,3304557.0,,,0,,0,America/Sao_Paulo,2012-08-03,Morro da Covanca,Morro da Covarca,,,,,,,,,,,,,,,,,,,,,,,,,,,,,,,,,,,,,,,,,,,,,,,,,,,,,,,,,,,,,,,,,
56469,3474815,Saquinho,Saquinho,-22.98515,-43.35407,H,COVE,BR,,21.0,,,,0,,5,America/Sao_Paulo,2012-01-19,Saquinho,,,,,,,,,,,,,,,,,,,,,,,,,,,,,,,,,,,,,,,,,,,,,,,,,,,,,,,,,,,,,,,,,,
56470,3474816,Cabo da Pombeba,Cabo da Pombeba,-22.98306,-43.39333,T,CAPE,BR,,21.0,,,,0,,4,America/Sao_Paulo,2012-12-06,Cabo da Pombeba,,,,,,,,,,,,,,,,,,,,,,,,,,,,,,,,,,,,,,,,,,,,,,,,,,,,,,,,,,,,,,,,,,
56474,3474820,Ilha da Jibóla,Ilha da Jibola,-23.0025,-43.30917,T,ISL,BR,,21.0,,,,0,,7,America/Sao_Paulo,2012-12-06,Ilha da Jibola,Ilha da Jibóla,,,,,,,,,,,,,,,,,,,,,,,,,,,,,,,,,,,,,,,,,,,,,,,,,,,,,,,,,,,,,,,,,
56475,3474821,Ilha dos Pescadores,Ilha dos Pescadores,-23.00361,-43.30639,T,ISL,BR,,21.0,,,,0,,7,America/Sao_Paulo,2012-12-06,Ilha dos Pescadores,,,,,,,,,,,,,,,,,,,,,,,,,,,,,,,,,,,,,,,,,,,,,,,,,,,,,,,,,,,,,,,,,,
56481,3474827,Canal de Sernambetiba,Canal de Sernambetiba,-23.03556,-43.49333,H,CNL,BR,,21.0,,,,0,,3,America/Sao_Paulo,2012-12-06,Canal de Sernambetiba,,,,,,,,,,,,,,,,,,,,,,,,,,,,,,,,,,,,,,,,,,,,,,,,,,,,,,,,,,,,,,,,,,
58858,3477204,Ilha Irmã do Meio,Ilha Irma do Meio,-27.8382,-48.52554,T,ISL,BR,,26.0,,,,0,,87,America/Sao_Paulo,2018-10-05,Ilha Irma do Meio,Ilha Irmã do Meio,,,,,,,,,,,,,,,,,,,,,,,,,,,,,,,,,,,,,,,,,,,,,,,,,,,,,,,,,,,,,,,,,
58859,3477205,Ilha Irmã de Fora,Ilha Irma de Fora,-27.83765,-48.5043,T,ISL,BR,,26.0,,,,0,,107,America/Sao_Paulo,2018-10-05,Ilha Irma de Fora,Ilha Irmã de Fora,,,,,,,,,,,,,,,,,,,,,,,,,,,,,,,,,,,,,,,,,,,,,,,,,,,,,,,,,,,,,,,,,
58860,3477206,Ilha Irmã Pequena,Ilha Irma Pequena,-27.83172,-48.52883,T,ISL,BR,,26.0,,,,0,,29,America/Sao_Paulo,2018-10-05,Ilha Irma Pequena,Ilha Irma de Terra,Ilha Irmã Pequena,Ilha Irmã de Terra,,,,,,,,,,,,,,,,,,,,,,,,,,,,,,,,,,,,,,,,,,,,,,,,,,,,,,,,,,,,,,,
58866,3477212,Ponta do Saquinho,Ponta do Saquinho,-27.80806,-48.53583,T,PT,BR,,26.0,4205407.0,,,0,,5,America/Sao_Paulo,2018-12-05,Ponta do Saquinho,,,,,,,,,,,,,,,,,,,,,,,,,,,,,,,,,,,,,,,,,,,,,,,,,,,,,,,,,,,,,,,,,,
58867,3477213,Enseada do Pântano do Sul,Enseada do Pantano do Sul,-27.78859,-48.51626,H,BAY,BR,,26.0,,,,0,,1,America/Sao_Paulo,2018-10-05,Enseada do Pantano do Sul,Enseada do Pântano do Sul,Enseada do Pãntano do Sul,,,,,,,,,,,,,,,,,,,,,,,,,,,,,,,,,,,,,,,,,,,,,,,,,,,,,,,,,,,,,,,,
58869,3477215,Ponta do Fuzil,Ponta do Fuzil,-27.795,-48.4975,T,PT,BR,,26.0,,,,0,,13,America/Sao_Paulo,2018-12-05,Ponta do Fuzil,,,,,,,,,,,,,,,,,,,,,,,,,,,,,,,,,,,,,,,,,,,,,,,,,,,,,,,,,,,,,,,,,,
58874,3477220,Ponta do Marisco,Ponta do Marisco,-27.79361,-48.50417,T,PT,BR,,26.0,,,,0,,14,America/Sao_Paulo,2012-01-19,Ponta da Andorinha,Ponta do Marisco,,,,,,,,,,,,,,,,,,,,,,,,,,,,,,,,,,,,,,,,,,,,,,,,,,,,,,,,,,,,,,,,,
58878,3477224,Ponta da Felicidade,Ponta da Felicidade,-27.78528,-48.48361,T,PT,BR,,26.0,4205407.0,,,0,,4,America/Sao_Paulo,2018-12-05,Ponta da Felicidade,,,,,,,,,,,,,,,,,,,,,,,,,,,,,,,,,,,,,,,,,,,,,,,,,,,,,,,,,,,,,,,,,,
58879,3477225,Ponta do Facão,Ponta do Facao,-27.76361,-48.47639,T,PT,BR,,26.0,,,,0,,-2,America/Sao_Paulo,2018-12-05,Ponta do Facao,Ponta do Facão,,,,,,,,,,,,,,,,,,,,,,,,,,,,,,,,,,,,,,,,,,,,,,,,,,,,,,,,,,,,,,,,,
58912,3477258,Ponta da Guarda,Ponta da Guarda,-27.90541,-48.5829,T,PT,BR,,26.0,,,,0,,11,America/Sao_Paulo,2018-10-05,Ponta da Guarda,,,,,,,,,,,,,,,,,,,,,,,,,,,,,,,,,,,,,,,,,,,,,,,,,,,,,,,,,,,,,,,,,,
58915,3477261,Rio da Guarda do Embaú,Rio da Guarda do Embau,-27.90639,-48.58361,H,STM,BR,,26.0,,,,0,,4,America/Sao_Paulo,1999-04-30,,,,,,,,,,,,,,,,,,,,,,,,,,,,,,,,,,,,,,,,,,,,,,,,,,,,,,,,,,,,,,,,,,,
58933,3477279,Ilhote do Siriú,Ilhote do Siriu,-27.98733,-48.6176,T,ISL,BR,,26.0,,,,0,,0,America/Sao_Paulo,2018-10-05,Ilhote do Siriu,Ilhote do Siriú,,,,,,,,,,,,,,,,,,,,,,,,,,,,,,,,,,,,,,,,,,,,,,,,,,,,,,,,,,,,,,,,,
58993,3477339,Pedra do Caraolho,Pedra do Caraolho,-27.03306,-48.57611,T,RK,BR,,26.0,,,,0,,-9999,America/Sao_Paulo,1999-05-12,,,,,,,,,,,,,,,,,,,,,,,,,,,,,,,,,,,,,,,,,,,,,,,,,,,,,,,,,,,,,,,,,,,
58996,3477342,Ponta do Boqueirão,Ponta do Boqueirao,-27.05472,-48.58583,T,PT,BR,,26.0,4202008.0,,,0,,2,America/Sao_Paulo,2018-12-05,Ponta do Boqueirao,Ponta do Boqueirão,,,,,,,,,,,,,,,,,,,,,,,,,,,,,,,,,,,,,,,,,,,,,,,,,,,,,,,,,,,,,,,,,
59010,3477356,Ponta da Ilhota,Ponta da Ilhota,-27.07972,-48.5892,T,PT,BR,,26.0,,,,0,,13,America/Sao_Paulo,2018-10-05,Ponta Cabeco,Ponta Cabeço,Ponta da Ilhota,,,,,,,,,,,,,,,,,,,,,,,,,,,,,,,,,,,,,,,,,,,,,,,,,,,,,,,,,,,,,,,,
59044,3477390,Enseada das Bombas,Enseada das Bombas,-27.13811,-48.49607,H,BAY,BR,,26.0,,,,0,,1,America/Sao_Paulo,2018-10-05,Enseada das Bombas,,,,,,,,,,,,,,,,,,,,,,,,,,,,,,,,,,,,,,,,,,,,,,,,,,,,,,,,,,,,,,,,,,
59045,3477391,Ilha de João da Cunha,Ilha de Joao da Cunha,-27.14078,-48.54425,T,ISL,BR,,26.0,,,,0,,61,America/Sao_Paulo,2018-10-05,Ilha de Joao da Cunha,Ilha de João da Cunha,Ilha de Porto Belo,,,,,,,,,,,,,,,,,,,,,,,,,,,,,,,,,,,,,,,,,,,,,,,,,,,,,,,,,,,,,,,,
59050,3477396,Ponta do Estaleiro,Ponta do Estaleiro,-27.11469,-48.51124,T,PT,BR,,26.0,4213500.0,,,0,,20,America/Sao_Paulo,2016-06-13,,,,,,,,,,,,,,,,,,,,,,,,,,,,,,,,,,,,,,,,,,,,,,,,,,,,,,,,,,,,,,,,,,,
59056,3477402,Ponta do Caixa de Aço,Ponta do Caixa de Aco,-27.12767,-48.53045,T,PT,BR,,26.0,4213500.0,,,0,,2,America/Sao_Paulo,2016-06-13,,,,,,,,,,,,,,,,,,,,,,,,,,,,,,,,,,,,,,,,,,,,,,,,,,,,,,,,,,,,,,,,,,,
59062,3477408,Ponta do Vieira,Ponta do Vieira,-27.15306,-48.55806,T,PT,BR,,26.0,4213500.0,,,0,,39,America/Sao_Paulo,2018-12-05,Ponta do Vieira,,,,,,,,,,,,,,,,,,,,,,,,,,,,,,,,,,,,,,,,,,,,,,,,,,,,,,,,,,,,,,,,,,
59064,3477410,Ponta de Fora,Ponta de Fora,-27.16111,-48.48361,T,PT,BR,,26.0,,,,0,,-9999,America/Sao_Paulo,2018-12-05,Ponta de Fora,,,,,,,,,,,,,,,,,,,,,,,,,,,,,,,,,,,,,,,,,,,,,,,,,,,,,,,,,,,,,,,,,,
59065,3477411,Praia do Mariscal,Praia do Mariscal,-27.18639,-48.49861,T,BCH,BR,,26.0,,,,0,,-9999,America/Sao_Paulo,2018-12-05,Praia do Mariscal,,,,,,,,,,,,,,,,,,,,,,,,,,,,,,,,,,,,,,,,,,,,,,,,,,,,,,,,,,,,,,,,,,
59066,3477412,Enseada de Mariscal,Enseada de Mariscal,-27.18067,-48.49105,H,BAY,BR,,26.0,,,,0,,-9999,America/Sao_Paulo,2018-10-05,Enseada de Mariscal,Enseada do Mariscal,,,,,,,,,,,,,,,,,,,,,,,,,,,,,,,,,,,,,,,,,,,,,,,,,,,,,,,,,,,,,,,,,
59067,3477413,Ilha do Amendoim,Ilha do Amendoim,-27.20696,-48.47026,T,ISL,BR,,26.0,,,,0,,39,America/Sao_Paulo,2018-10-05,Ilha do Amendoim,Ilhas Mandubis,,,,,,,,,,,,,,,,,,,,,,,,,,,,,,,,,,,,,,,,,,,,,,,,,,,,,,,,,,,,,,,,,
59069,3477415,Enseada dos Zimbros,Enseada dos Zimbros,-27.19084,-48.52772,H,BAY,BR,,26.0,,,,0,,1,America/Sao_Paulo,2018-10-05,Enseada de Canto Grande,Enseada dos Zimbros,,,,,,,,,,,,,,,,,,,,,,,,,,,,,,,,,,,,,,,,,,,,,,,,,,,,,,,,,,,,,,,,,
59071,3477417,Laje de Zimbros,Laje de Zimbros,-27.225,-48.51889,T,RK,BR,,26.0,,,,0,,-9999,America/Sao_Paulo,1999-05-12,,,,,,,,,,,,,,,,,,,,,,,,,,,,,,,,,,,,,,,,,,,,,,,,,,,,,,,,,,,,,,,,,,,
59072,3477418,Ponta do Lobo,Ponta do Lobo,-27.21806,-48.505,T,PT,BR,,26.0,,,,0,,-9999,America/Sao_Paulo,2018-12-05,Ponta do Lobo,,,,,,,,,,,,,,,,,,,,,,,,,,,,,,,,,,,,,,,,,,,,,,,,,,,,,,,,,,,,,,,,,,
59076,3477422,Ponta Duas Irmãs,Ponta Duas Irmas,-27.22222,-48.51278,T,PT,BR,,26.0,,,,0,,-9999,America/Sao_Paulo,2018-12-05,Ponta Duas Irmas,Ponta Duas Irmãs,,,,,,,,,,,,,,,,,,,,,,,,,,,,,,,,,,,,,,,,,,,,,,,,,,,,,,,,,,,,,,,,,
59084,3477430,Bombinhas,Bombinhas,-27.13167,-48.52778,P,PPL,BR,,26.0,4213500.0,,,0,,9,America/Sao_Paulo,2012-08-03,,,,,,,,,,,,,,,,,,,,,,,,,,,,,,,,,,,,,,,,,,,,,,,,,,,,,,,,,,,,,,,,,,,
59086,3477432,Ponta Grande,Ponta Grande,-27.21064,-48.57795,T,PT,BR,,26.0,,,,0,,14,America/Sao_Paulo,2018-10-05,Ponta Grande,,,,,,,,,,,,,,,,,,,,,,,,,,,,,,,,,,,,,,,,,,,,,,,,,,,,,,,,,,,,,,,,,,
59089,3477435,Praia Vermelha,Praia Vermelha,-27.20472,-48.5725,T,BCH,BR,,26.0,,,,0,,-9999,America/Sao_Paulo,2018-12-05,Praia Vermelha,,,,,,,,,,,,,,,,,,,,,,,,,,,,,,,,,,,,,,,,,,,,,,,,,,,,,,,,,,,,,,,,,,
59126,3477472,Rio Beboto,Rio Beboto,-27.1525,-48.54194,H,STM,BR,,26.0,,,,0,,0,America/Sao_Paulo,1999-05-12,,,,,,,,,,,,,,,,,,,,,,,,,,,,,,,,,,,,,,,,,,,,,,,,,,,,,,,,,,,,,,,,,,,
