Unnamed: 0,geonameid,name,asciiname,latitude,longitude,feature_class,feature_code,country_code,cc2,admin1_code,admin2_code,admin3_code,admin4_code,population,elevation,dem,timezone,modification_date,othername0,othername1,othername2,othername3,othername4,othername5,othername6,othername7,othername8,othername9,othername10,othername11,othername12,othername13,othername14,othername15,othername16,othername17,othername18,othername19,othername20,othername21,othername22,othername23,othername24,othername25,othername26,othername27,othername28,othername29,othername30,othername31,othername32,othername33,othername34,othername35,othername36,othername37,othername38,othername39,othername40,othername41,othername42,othername43,othername44,othername45,othername46,othername47,othername48,othername49,othername50,othername51,othername52,othername53,othername54,othername55,othername56,othername57,othername58,othername59,othername60,othername61,othername62,othername63,othername64,othername65,othername66
20021,3404865,Brejo Alegre,Brejo Alegre,-2.91667,-39.83333,L,AREA,BR,,6.0,,,,0,,-9999,America/Fortaleza,1993-12-17,,,,,,,,,,,,,,,,,,,,,,,,,,,,,,,,,,,,,,,,,,,,,,,,,,,,,,,,,,,,,,,,,,,
20142,3404986,Ponta do Seixas,Ponta do Seixas,-7.15,-34.78333,T,CAPE,BR,,27.0,,,,0,,-9999,America/Noronha,2012-01-19,Cabo Branco,Ponta do Seixas,,,,,,,,,,,,,,,,,,,,,,,,,,,,,,,,,,,,,,,,,,,,,,,,,,,,,,,,,,,,,,,,,
20885,3405730,Riscas das Bicudas,Riscas das Bicudas,-4.95,-36.21667,H,SHOL,BR,,22.0,,,,0,,-9999,America/Noronha,1993-12-17,,,,,,,,,,,,,,,,,,,,,,,,,,,,,,,,,,,,,,,,,,,,,,,,,,,,,,,,,,,,,,,,,,,
20887,3405732,Ilha Bicuaua,Ilha Bicuaua,-1.68333,-44.75,T,ISL,BR,,13.0,,,,0,,-9999,America/Belem,2018-12-05,Ilha Bicuaua,,,,,,,,,,,,,,,,,,,,,,,,,,,,,,,,,,,,,,,,,,,,,,,,,,,,,,,,,,,,,,,,,,
20920,3405766,Ponta do Bernardo,Ponta do Bernardo,-1.9,-44.53333,T,PT,BR,,13.0,,,,0,,13,America/Belem,2018-12-05,Ponta do Bernardo,,,,,,,,,,,,,,,,,,,,,,,,,,,,,,,,,,,,,,,,,,,,,,,,,,,,,,,,,,,,,,,,,,
21076,3405922,Ponta do Beça,Ponta do Beca,-7.06667,-34.83333,T,PT,BR,,17.0,,,,0,,-9999,America/Noronha,2018-12-05,Ponta do Beca,Ponta do Beça,,,,,,,,,,,,,,,,,,,,,,,,,,,,,,,,,,,,,,,,,,,,,,,,,,,,,,,,,,,,,,,,,
21121,3405967,Bate-Vento,Bate-Vento,-1.3,-44.9,P,PPL,BR,,13.0,2103703.0,,,0,,9,America/Fortaleza,2012-08-03,,,,,,,,,,,,,,,,,,,,,,,,,,,,,,,,,,,,,,,,,,,,,,,,,,,,,,,,,,,,,,,,,,,
21172,3406018,Ponta do Barro Vermelho,Ponta do Barro Vermelho,-3.87996,-32.46454,T,PT,BR,,30.0,2605459.0,,,0,,7,America/Noronha,2016-06-12,Black Point,,,,,,,,,,,,,,,,,,,,,,,,,,,,,,,,,,,,,,,,,,,,,,,,,,,,,,,,,,,,,,,,,,
21262,3406109,Barrinha,Barrinha,-2.8,-40.35,P,PPL,BR,,6.0,2300200.0,,,0,,-9999,America/Fortaleza,2018-07-24,,,,,,,,,,,,,,,,,,,,,,,,,,,,,,,,,,,,,,,,,,,,,,,,,,,,,,,,,,,,,,,,,,,
21362,3406209,Barreiras,Barreiras,-9.11667,-35.26667,P,PPL,BR,,2.0,2703601.0,,,0,,-9999,America/Maceio,2018-07-23,,,,,,,,,,,,,,,,,,,,,,,,,,,,,,,,,,,,,,,,,,,,,,,,,,,,,,,,,,,,,,,,,,,
21475,3406323,Praia Barra do Caponga,Praia Barra do Caponga,-4.05,-38.18333,T,BCH,BR,,6.0,,,,0,,1,America/Fortaleza,2018-12-05,Praia Barra do Caponga,,,,,,,,,,,,,,,,,,,,,,,,,,,,,,,,,,,,,,,,,,,,,,,,,,,,,,,,,,,,,,,,,,
21558,3406406,Barra,Barra,-7.36667,-34.78333,P,PPL,BR,,17.0,2504603.0,,,0,,-9999,America/Fortaleza,2018-07-24,,,,,,,,,,,,,,,,,,,,,,,,,,,,,,,,,,,,,,,,,,,,,,,,,,,,,,,,,,,,,,,,,,,
21562,3406410,Barra,Barra,-6.76667,-34.91667,P,PPL,BR,,17.0,2512903.0,,,0,,1,America/Fortaleza,2018-07-24,,,,,,,,,,,,,,,,,,,,,,,,,,,,,,,,,,,,,,,,,,,,,,,,,,,,,,,,,,,,,,,,,,,
21627,3406475,Banquê,Banque,-2.8,-40.33333,P,PPL,BR,,6.0,2300200.0,,,0,,-9999,America/Fortaleza,2018-07-24,,,,,,,,,,,,,,,,,,,,,,,,,,,,,,,,,,,,,,,,,,,,,,,,,,,,,,,,,,,,,,,,,,,
21870,3406718,Praia da Baixa Grande,Praia da Baixa Grande,-4.93333,-37.03333,T,BCH,BR,,22.0,,,,0,,-9999,America/Noronha,2018-12-05,Praia da Baixa Grande,,,,,,,,,,,,,,,,,,,,,,,,,,,,,,,,,,,,,,,,,,,,,,,,,,,,,,,,,,,,,,,,,,
21981,3406829,Banco do Bailique,Banco do Bailique,1.08333,-49.88333,H,FLTT,BR,,3.0,,,,0,,-9999,America/Belem,1993-12-17,,,,,,,,,,,,,,,,,,,,,,,,,,,,,,,,,,,,,,,,,,,,,,,,,,,,,,,,,,,,,,,,,,,
22041,3406889,Cabo de Bacupari,Cabo de Bacupari,-6.38333,-34.96667,T,CAPE,BR,,22.0,,,,0,,-9999,America/Noronha,2012-01-19,Cabo Bacopari,Cabo Bacoparí,Cabo de Bacupari,Cape Bacopary,Ponta de Bacopary,,,,,,,,,,,,,,,,,,,,,,,,,,,,,,,,,,,,,,,,,,,,,,,,,,,,,,,,,,,,,,
22137,3406985,Kata Fall,Kata Fall,4.28333,-59.71667,H,FLLS,BR,GY,0.0,,,,0,,337,America/Boa_Vista,2014-03-08,Cachoeira Atasu,Kata Fall,,,,,,,,,,,,,,,,,,,,,,,,,,,,,,,,,,,,,,,,,,,,,,,,,,,,,,,,,,,,,,,,,
22142,3406990,Saco da Atalaia,Saco da Atalaia,-3.8581,-32.40724,H,COVE,BR,,30.0,,,,0,,16,America/Noronha,2016-06-12,Cotton Tree Bay,,,,,,,,,,,,,,,,,,,,,,,,,,,,,,,,,,,,,,,,,,,,,,,,,,,,,,,,,,,,,,,,,,
22144,3406992,Ponta da Atalaia,Ponta da Atalaia,-3.85904,-32.40944,T,PT,BR,,30.0,2605459.0,,,0,,4,America/Noronha,2016-06-12,,,,,,,,,,,,,,,,,,,,,,,,,,,,,,,,,,,,,,,,,,,,,,,,,,,,,,,,,,,,,,,,,,,
22146,3406994,Morro da Atalaia,Morro da Atalaia,-3.85853,-32.41418,T,HLL,BR,,30.0,2605459.0,,,0,,172,America/Noronha,2016-06-12,Monte do Espinhaco,Monte do Espinhaço,Morro da Atalaia,Morro do Espinhaco,Morro do Espinhaço,,,,,,,,,,,,,,,,,,,,,,,,,,,,,,,,,,,,,,,,,,,,,,,,,,,,,,,,,,,,,,
22535,3407383,Ilha Aracajá,Ilha Aracaja,-1.28333,-44.98333,T,ISL,BR,,13.0,,,,0,,2,America/Belem,2018-12-05,Ilha Aracaja,Ilha Aracajá,,,,,,,,,,,,,,,,,,,,,,,,,,,,,,,,,,,,,,,,,,,,,,,,,,,,,,,,,,,,,,,,,
22558,3407406,Prainha de Aquiraz,Prainha de Aquiraz,-3.9,-38.33333,T,BCH,BR,,6.0,,,,0,,-9999,America/Fortaleza,2018-12-05,Prainha de Aquiraz,,,,,,,,,,,,,,,,,,,,,,,,,,,,,,,,,,,,,,,,,,,,,,,,,,,,,,,,,,,,,,,,,,
22589,3407437,Rio Apodi,Rio Apodi,-4.93528,-37.15583,H,STM,BR,,22.0,,,,0,,1,America/Fortaleza,2021-08-29,Apodi River,Rio Apodi,Rio Apody,Rio Mossoro,,,,,,,,,,,,,,,,,,,,,,,,,,,,,,,,,,,,,,,,,,,,,,,,,,,,,,,,,,,,,,,
22598,3407446,Ilha do Apeú,Ilha do Apeu,-0.95,-46.2,T,ISL,BR,,16.0,,,,0,,-9999,America/Belem,2012-01-19,Ilha Apehu,Ilha Apehú,Ilha Guapehu,Ilha Guapehú,Ilha do Apeu,Ilha do Apeú,,,,,,,,,,,,,,,,,,,,,,,,,,,,,,,,,,,,,,,,,,,,,,,,,,,,,,,,,,,,,
22798,3407646,Ponta do Andrade,Ponta do Andrade,-1.28333,-45.41667,T,PT,BR,,13.0,,,,0,,-9999,America/Belem,2012-01-19,Ponta Andrade,Ponta do Andrade,,,,,,,,,,,,,,,,,,,,,,,,,,,,,,,,,,,,,,,,,,,,,,,,,,,,,,,,,,,,,,,,,
22881,3407729,Amazon River,Amazon River,-0.16667,-49.0,H,STM,BR,BR$CO$PE,16.0,,,,0,,1,America/Belem,2021-07-06,Amazone,Amazone River,Amazonka,Orellana,Rio Amazonas,Rio Maranon,Rio Solimoes,Rio Solimões,Rio el Amazonas,Río Amazonas,Río Marañón,Río el Amazonas,Salimoes River,Solimoens,Solimoes River,Solimões River,Амазонка,,,,,,,,,,,,,,,,,,,,,,,,,,,,,,,,,,,,,,,,,,,,,,,,,,
22933,3407781,Pedra do Alvadio,Pedra do Alvadio,-5.06667,-36.18333,T,RK,BR,,22.0,,,,0,,-9999,America/Noronha,1993-12-17,,,,,,,,,,,,,,,,,,,,,,,,,,,,,,,,,,,,,,,,,,,,,,,,,,,,,,,,,,,,,,,,,,,
23323,3408172,Águas Belas,Aguas Belas,-4.05,-38.18333,P,PPL,BR,,6.0,2303501.0,,,0,,1,America/Fortaleza,2018-07-24,,,,,,,,,,,,,,,,,,,,,,,,,,,,,,,,,,,,,,,,,,,,,,,,,,,,,,,,,,,,,,,,,,,
23350,3408199,Água Doce,Agua Doce,2.6,-50.83333,P,PPL,BR,,3.0,1600204.0,,,0,,1,America/Belem,2018-07-23,,,,,,,,,,,,,,,,,,,,,,,,,,,,,,,,,,,,,,,,,,,,,,,,,,,,,,,,,,,,,,,,,,,
23430,3408279,Banco Adônis,Banco Adonis,-0.33333,-48.13333,H,SHOL,BR,,16.0,,,,0,,-9999,America/Belem,1993-12-17,,,,,,,,,,,,,,,,,,,,,,,,,,,,,,,,,,,,,,,,,,,,,,,,,,,,,,,,,,,,,,,,,,,
23517,3408367,Banco Acaraú,Banco Acarau,-2.81667,-40.16667,H,BNK,BR,,6.0,,,,0,,-9999,America/Fortaleza,2012-01-19,Banco Acarau,Banco Acaraú,Banco de Acarahu,Banco de Acarahú,,,,,,,,,,,,,,,,,,,,,,,,,,,,,,,,,,,,,,,,,,,,,,,,,,,,,,,,,,,,,,,
23529,3408379,Acaraí,Acarai,-3.01667,-39.63333,P,PPL,BR,,6.0,2300754.0,,,0,,-9999,America/Fortaleza,2018-07-24,,,,,,,,,,,,,,,,,,,,,,,,,,,,,,,,,,,,,,,,,,,,,,,,,,,,,,,,,,,,,,,,,,,
23553,3408403,Praia Abreulândia,Praia Abreulandia,-3.78333,-38.41667,T,BCH,BR,,6.0,,,,0,,-9999,America/Fortaleza,2018-12-05,Praia Abreulandia,Praia Abreulândia,,,,,,,,,,,,,,,,,,,,,,,,,,,,,,,,,,,,,,,,,,,,,,,,,,,,,,,,,,,,,,,,,
23568,3408418,Rio Abiaí,Rio Abiai,-7.43333,-34.8,H,STM,BR,,17.0,,,,0,,-9999,America/Noronha,2021-08-30,Abiai River,Abiaí River,Rio Abiai,Rio Abiaí,,,,,,,,,,,,,,,,,,,,,,,,,,,,,,,,,,,,,,,,,,,,,,,,,,,,,,,,,,,,,,,
25925,3410894,Barra dos Remédios,Barra dos Remedios,-2.89056,-41.11194,H,INLT,BR,,6.0,,,,0,,-9999,America/Fortaleza,1995-11-02,,,,,,,,,,,,,,,,,,,,,,,,,,,,,,,,,,,,,,,,,,,,,,,,,,,,,,,,,,,,,,,,,,,
25926,3410895,Barra Grande,Barra Grande,-2.90472,-41.43694,H,INLT,BR,,0.0,,,,0,,-9999,America/Fortaleza,1995-11-02,,,,,,,,,,,,,,,,,,,,,,,,,,,,,,,,,,,,,,,,,,,,,,,,,,,,,,,,,,,,,,,,,,,
25966,3410935,Lajes dos Baixos,Lajes dos Baixos,-9.95833,-35.96667,H,SHOL,BR,,2.0,,,,0,,-9999,America/Noronha,1995-11-20,,,,,,,,,,,,,,,,,,,,,,,,,,,,,,,,,,,,,,,,,,,,,,,,,,,,,,,,,,,,,,,,,,,
26126,3411098,Rio Oiapoque,Rio Oiapoque,4.21667,-51.65,H,STM,BR,,0.0,,,,0,,11,America/Belem,2021-07-04,Fleuve Oyapock,Oiapoque,Rio Oiapoque,,,,,,,,,,,,,,,,,,,,,,,,,,,,,,,,,,,,,,,,,,,,,,,,,,,,,,,,,,,,,,,,
26127,3411100,Ponta dos Índios,Ponta dos Indios,4.08333,-51.66667,T,PT,BR,,0.0,,,,0,,17,America/Belem,2018-12-05,Ponta dos Indios,Ponta dos Índios,,,,,,,,,,,,,,,,,,,,,,,,,,,,,,,,,,,,,,,,,,,,,,,,,,,,,,,,,,,,,,,,,
26129,3411102,Ponta Grossa,Ponta Grossa,3.0,-50.98333,T,PT,BR,,3.0,,,,0,,1,America/Belem,2018-12-05,Ponta Grossa,,,,,,,,,,,,,,,,,,,,,,,,,,,,,,,,,,,,,,,,,,,,,,,,,,,,,,,,,,,,,,,,,,
26137,3411110,Cabo Raso do Norte,Cabo Raso do Norte,2.21667,-50.45,T,CAPE,BR,,3.0,,,,0,,1,America/Belem,2012-01-19,Cabo Norte,Cabo Raso do Norte,Old Cape North,,,,,,,,,,,,,,,,,,,,,,,,,,,,,,,,,,,,,,,,,,,,,,,,,,,,,,,,,,,,,,,,
26145,3411120,Canal de Olinda,Canal de Olinda,-8.03182,-34.84945,H,CHN,BR,,30.0,,,,0,,-9999,America/Recife,2017-07-11,,,,,,,,,,,,,,,,,,,,,,,,,,,,,,,,,,,,,,,,,,,,,,,,,,,,,,,,,,,,,,,,,,,
26146,3411121,Canal do Sul,Canal do Sul,-8.06667,-34.85,H,CHN,BR,,30.0,,,,0,,-9999,America/Noronha,1995-11-21,,,,,,,,,,,,,,,,,,,,,,,,,,,,,,,,,,,,,,,,,,,,,,,,,,,,,,,,,,,,,,,,,,,
26147,3411122,Banco Ituba,Banco Ituba,-8.09167,-34.84722,H,SHOL,BR,,30.0,,,,0,,-9999,America/Noronha,1995-11-21,,,,,,,,,,,,,,,,,,,,,,,,,,,,,,,,,,,,,,,,,,,,,,,,,,,,,,,,,,,,,,,,,,,
26151,3411126,Molhe de Olinda,Molhe de Olinda,-8.04246,-34.86209,S,MOLE,BR,,30.0,2609600.0,,,0,,1,America/Recife,2018-11-29,,,,,,,,,,,,,,,,,,,,,,,,,,,,,,,,,,,,,,,,,,,,,,,,,,,,,,,,,,,,,,,,,,,
26152,3411127,Praia de São Francisco,Praia de Sao Francisco,-8.02036,-34.84962,T,BCH,BR,,30.0,2609600.0,,,0,,11,America/Recife,2020-03-09,Praia de Sao Francisco,Praia de São Francisco,,,,,,,,,,,,,,,,,,,,,,,,,,,,,,,,,,,,,,,,,,,,,,,,,,,,,,,,,,,,,,,,,
26153,3411128,Baixo Itabaiacus,Baixo Itabaiacus,-8.0125,-34.82917,H,SHOL,BR,,30.0,,,,0,,-9999,America/Noronha,1995-11-21,,,,,,,,,,,,,,,,,,,,,,,,,,,,,,,,,,,,,,,,,,,,,,,,,,,,,,,,,,,,,,,,,,,
26154,3411129,Recife do Meireles,Recife do Meireles,-3.71111,-38.0,H,RF,BR,,6.0,,,,0,,-9999,America/Fortaleza,2012-01-19,Recife do Meireles,Recife do Meireless,,,,,,,,,,,,,,,,,,,,,,,,,,,,,,,,,,,,,,,,,,,,,,,,,,,,,,,,,,,,,,,,,
26155,3411130,Pedras do Justin,Pedras do Justin,-3.70833,-38.5125,H,SHOL,BR,,6.0,,,,0,,-9999,America/Fortaleza,1995-11-21,,,,,,,,,,,,,,,,,,,,,,,,,,,,,,,,,,,,,,,,,,,,,,,,,,,,,,,,,,,,,,,,,,,
26156,3411131,Recife da Velha,Recife da Velha,-3.69722,-38.52917,H,SHOL,BR,,6.0,,,,0,,-9999,America/Fortaleza,1995-11-21,,,,,,,,,,,,,,,,,,,,,,,,,,,,,,,,,,,,,,,,,,,,,,,,,,,,,,,,,,,,,,,,,,,
26157,3411132,Recife Grande,Recife Grande,-3.59167,-38.52917,H,SHOL,BR,,6.0,,,,0,,-9999,America/Fortaleza,1995-11-21,,,,,,,,,,,,,,,,,,,,,,,,,,,,,,,,,,,,,,,,,,,,,,,,,,,,,,,,,,,,,,,,,,,
26158,3411133,Praia de Pirambu,Praia de Pirambu,-3.70556,-38.55417,T,BCH,BR,,6.0,,,,0,,-9999,America/Fortaleza,1995-11-21,,,,,,,,,,,,,,,,,,,,,,,,,,,,,,,,,,,,,,,,,,,,,,,,,,,,,,,,,,,,,,,,,,,
26159,3411134,Praia Formosa,Praia Formosa,-3.7125,-38.54444,T,BCH,BR,,6.0,,,,0,,1,America/Fortaleza,2018-12-05,Praia Formosa,,,,,,,,,,,,,,,,,,,,,,,,,,,,,,,,,,,,,,,,,,,,,,,,,,,,,,,,,,,,,,,,,,
26160,3411135,Praia de Iracema,Praia de Iracema,-3.71806,-38.51528,T,BCH,BR,,6.0,,,,0,,1,America/Fortaleza,2019-02-22,Praia de Iracema,,,,,,,,,,,,,,,,,,,,,,,,,,,,,,,,,,,,,,,,,,,,,,,,,,,,,,,,,,,,,,,,,,
26161,3411136,Praia do Meireles,Praia do Meireles,-3.72083,-38.50556,T,BCH,BR,,6.0,2304400.0,,,0,,-9999,America/Fortaleza,2018-12-05,Praia do Meireles,,,,,,,,,,,,,,,,,,,,,,,,,,,,,,,,,,,,,,,,,,,,,,,,,,,,,,,,,,,,,,,,,,
26163,3411138,Ponta do Meireles,Ponta do Meireles,-3.70694,-38.47222,T,PT,BR,,6.0,2304400.0,,,0,,10,America/Fortaleza,2018-12-05,Ponta do Meireles,,,,,,,,,,,,,,,,,,,,,,,,,,,,,,,,,,,,,,,,,,,,,,,,,,,,,,,,,,,,,,,,,,
26230,3411332,Ilha Bacanga,Ilha Bacanga,-1.8,-44.6,T,PEN,BR,,13.0,,,,0,,-9999,America/Belem,1996-08-14,,,,,,,,,,,,,,,,,,,,,,,,,,,,,,,,,,,,,,,,,,,,,,,,,,,,,,,,,,,,,,,,,,,
26231,3411333,Ponta de Bacanga,Ponta de Bacanga,-1.78333,-44.56667,T,PT,BR,,13.0,,,,0,,-9999,America/Belem,2018-12-05,Ponta de Bacanga,,,,,,,,,,,,,,,,,,,,,,,,,,,,,,,,,,,,,,,,,,,,,,,,,,,,,,,,,,,,,,,,,,
26232,3411334,Barra de Bacanga,Barra de Bacanga,-1.78333,-44.56667,H,CHNM,BR,,13.0,,,,0,,-9999,America/Belem,1996-08-14,,,,,,,,,,,,,,,,,,,,,,,,,,,,,,,,,,,,,,,,,,,,,,,,,,,,,,,,,,,,,,,,,,,
26237,3411339,Ponta Grossa,Ponta Grossa,-1.41667,-45.0,T,PT,BR,,13.0,,,,0,,-9999,America/Belem,2018-12-05,Ponta Grossa,,,,,,,,,,,,,,,,,,,,,,,,,,,,,,,,,,,,,,,,,,,,,,,,,,,,,,,,,,,,,,,,,,
26238,3411340,Ilha do Guará,Ilha do Guara,-1.38333,-45.01667,T,ISL,BR,,13.0,,,,0,,5,America/Belem,2018-12-05,Ilha do Guara,Ilha do Guará,,,,,,,,,,,,,,,,,,,,,,,,,,,,,,,,,,,,,,,,,,,,,,,,,,,,,,,,,,,,,,,,,
26239,3411341,Ilha Urumaru,Ilha Urumaru,-1.33333,-45.01667,T,ISL,BR,,13.0,,,,0,,3,America/Belem,1996-08-14,,,,,,,,,,,,,,,,,,,,,,,,,,,,,,,,,,,,,,,,,,,,,,,,,,,,,,,,,,,,,,,,,,,
26240,3411342,Ilha do Porto do Meio,Ilha do Porto do Meio,-1.28333,-44.96667,T,ISL,BR,,13.0,,,,0,,8,America/Belem,2018-12-05,Ilha do Porto do Meio,,,,,,,,,,,,,,,,,,,,,,,,,,,,,,,,,,,,,,,,,,,,,,,,,,,,,,,,,,,,,,,,,,
26241,3411343,Ponta do Gino,Ponta do Gino,-1.35,-44.9,T,PT,BR,,13.0,2103703.0,,,0,,-9999,America/Belem,2018-12-05,Ponta do Gino,,,,,,,,,,,,,,,,,,,,,,,,,,,,,,,,,,,,,,,,,,,,,,,,,,,,,,,,,,,,,,,,,,
26242,3411344,Barra do Furo do Meio,Barra do Furo do Meio,-1.28333,-44.96667,H,CHNM,BR,,13.0,,,,0,,8,America/Belem,1996-08-14,,,,,,,,,,,,,,,,,,,,,,,,,,,,,,,,,,,,,,,,,,,,,,,,,,,,,,,,,,,,,,,,,,,
26244,3411346,Ilha Pitiu,Ilha Pitiu,-1.33333,-45.03333,T,ISL,BR,,13.0,,,,0,,1,America/Belem,1996-08-14,,,,,,,,,,,,,,,,,,,,,,,,,,,,,,,,,,,,,,,,,,,,,,,,,,,,,,,,,,,,,,,,,,,
26245,3411347,Ponta do Machado,Ponta do Machado,-1.35,-45.06667,T,PT,BR,,13.0,,,,0,,1,America/Belem,2018-12-05,Ponta do Machado,,,,,,,,,,,,,,,,,,,,,,,,,,,,,,,,,,,,,,,,,,,,,,,,,,,,,,,,,,,,,,,,,,
26246,3411348,Ilha Machado,Ilha Machado,-1.4,-45.11667,T,ISL,BR,,13.0,,,,0,,1,America/Belem,2018-12-05,Ilha Machado,,,,,,,,,,,,,,,,,,,,,,,,,,,,,,,,,,,,,,,,,,,,,,,,,,,,,,,,,,,,,,,,,,
26247,3411349,Coroa de Santo Antônio,Coroa de Santo Antonio,-1.4,-45.16667,H,SHOL,BR,,13.0,,,,0,,-9999,America/Belem,1996-08-14,,,,,,,,,,,,,,,,,,,,,,,,,,,,,,,,,,,,,,,,,,,,,,,,,,,,,,,,,,,,,,,,,,,
26248,3411350,Banco do Álvaro,Banco do Alvaro,-0.3,-44.81667,H,SHOL,BR,,13.0,,,,0,,-9999,America/Belem,1996-08-14,,,,,,,,,,,,,,,,,,,,,,,,,,,,,,,,,,,,,,,,,,,,,,,,,,,,,,,,,,,,,,,,,,,
26251,3411353,Ponta do Surunha,Ponta do Surunha,-1.3,-45.45,T,PT,BR,,13.0,,,,0,,4,America/Belem,2018-12-05,Ponta do Surunha,,,,,,,,,,,,,,,,,,,,,,,,,,,,,,,,,,,,,,,,,,,,,,,,,,,,,,,,,,,,,,,,,,
26254,3411356,Ilha Apeùzinho,Ilha Apeuzinho,-1.21667,-45.55,T,ISL,BR,,13.0,,,,0,,9,America/Belem,2018-12-05,Ilha Apeuzinho,Ilha Apeùzinho,,,,,,,,,,,,,,,,,,,,,,,,,,,,,,,,,,,,,,,,,,,,,,,,,,,,,,,,,,,,,,,,,
26255,3411357,Ponta Apeùzinho,Ponta Apeuzinho,-1.18333,-45.53333,T,PT,BR,,13.0,,,,0,,-9999,America/Belem,2018-12-05,Ponta Apeuzinho,Ponta Apeùzinho,,,,,,,,,,,,,,,,,,,,,,,,,,,,,,,,,,,,,,,,,,,,,,,,,,,,,,,,,,,,,,,,,
26256,3411358,Canal de São Jorge,Canal de Sao Jorge,-1.21667,-45.65,H,CHNM,BR,,13.0,,,,0,,1,America/Belem,1996-08-14,,,,,,,,,,,,,,,,,,,,,,,,,,,,,,,,,,,,,,,,,,,,,,,,,,,,,,,,,,,,,,,,,,,
26257,3411359,Ilha do Tralhoto,Ilha do Tralhoto,-1.25,-45.68333,T,ISL,BR,,13.0,,,,0,,9,America/Belem,2018-12-05,Ilha do Tralhoto,,,,,,,,,,,,,,,,,,,,,,,,,,,,,,,,,,,,,,,,,,,,,,,,,,,,,,,,,,,,,,,,,,
26258,3411360,Canal do Borges,Canal do Borges,-1.2,-45.7,H,CHNM,BR,,13.0,,,,0,,1,America/Belem,1996-08-14,,,,,,,,,,,,,,,,,,,,,,,,,,,,,,,,,,,,,,,,,,,,,,,,,,,,,,,,,,,,,,,,,,,
26259,3411361,Ponta do Borges,Ponta do Borges,-1.15,-45.68333,T,PT,BR,,13.0,2104305.0,,,0,,-9999,America/Belem,2018-12-05,Ponta do Borges,,,,,,,,,,,,,,,,,,,,,,,,,,,,,,,,,,,,,,,,,,,,,,,,,,,,,,,,,,,,,,,,,,
26261,3411363,Baía do Tramaí,Baia do Tramai,-1.13333,-45.78333,H,BAY,BR,,13.0,,,,0,,-9999,America/Belem,1996-08-14,,,,,,,,,,,,,,,,,,,,,,,,,,,,,,,,,,,,,,,,,,,,,,,,,,,,,,,,,,,,,,,,,,,
26263,3411365,Ilha Boa Vista do São João,Ilha Boa Vista do Sao Joao,-1.13333,-45.83333,T,ISL,BR,,13.0,,,,0,,1,America/Belem,2018-12-05,Ilha Boa Vista do Sao Joao,Ilha Boa Vista do São João,,,,,,,,,,,,,,,,,,,,,,,,,,,,,,,,,,,,,,,,,,,,,,,,,,,,,,,,,,,,,,,,,
26265,3411367,Ilha Cantagalo,Ilha Cantagalo,-1.15,-45.91667,T,PEN,BR,,13.0,,,,0,,20,America/Belem,1996-08-14,,,,,,,,,,,,,,,,,,,,,,,,,,,,,,,,,,,,,,,,,,,,,,,,,,,,,,,,,,,,,,,,,,,
26266,3411368,Ilha Sapeca,Ilha Sapeca,-1.15,-45.98333,T,ISL,BR,,13.0,,,,0,,0,America/Belem,2018-12-05,Ilha Sapeca,,,,,,,,,,,,,,,,,,,,,,,,,,,,,,,,,,,,,,,,,,,,,,,,,,,,,,,,,,,,,,,,,,
26267,3411369,Praia Velha,Praia Velha,-1.08333,-45.88333,T,BCH,BR,,13.0,2102903.0,,,0,,6,America/Belem,2018-12-05,Praia Velha,,,,,,,,,,,,,,,,,,,,,,,,,,,,,,,,,,,,,,,,,,,,,,,,,,,,,,,,,,,,,,,,,,
26268,3411370,Ponta Bacanga,Ponta Bacanga,-1.05,-45.88333,T,PT,BR,,13.0,,,,0,,-9999,America/Belem,2018-12-05,Ponta Bacanga,,,,,,,,,,,,,,,,,,,,,,,,,,,,,,,,,,,,,,,,,,,,,,,,,,,,,,,,,,,,,,,,,,
26272,3411374,Ilha dos Pássaros,Ilha dos Passaros,-1.1,-46.06667,T,ISL,BR,,16.0,,,,0,,24,America/Belem,2018-12-05,Ilha dos Passaros,Ilha dos Pássaros,,,,,,,,,,,,,,,,,,,,,,,,,,,,,,,,,,,,,,,,,,,,,,,,,,,,,,,,,,,,,,,,,
26273,3411375,Ponta Bacanguinha,Ponta Bacanguinha,-1.06667,-46.01667,T,PT,BR,,13.0,,,,0,,-9999,America/Belem,2018-12-05,Ponta Bacanguinha,,,,,,,,,,,,,,,,,,,,,,,,,,,,,,,,,,,,,,,,,,,,,,,,,,,,,,,,,,,,,,,,,,
26274,3411376,Ilha Gurupi,Ilha Gurupi,-1.05,-46.08333,T,ISL,BR,,16.0,,,,0,,0,America/Belem,2018-12-05,Ilha Gurupi,,,,,,,,,,,,,,,,,,,,,,,,,,,,,,,,,,,,,,,,,,,,,,,,,,,,,,,,,,,,,,,,,,
26278,3411380,Ilha da Criminosa,Ilha da Criminosa,-0.98333,-46.13333,T,ISL,BR,,16.0,,,,0,,-9999,America/Belem,2018-12-05,Ilha da Criminosa,,,,,,,,,,,,,,,,,,,,,,,,,,,,,,,,,,,,,,,,,,,,,,,,,,,,,,,,,,,,,,,,,,
26279,3411381,Ilha do Lombo Branco,Ilha do Lombo Branco,-0.93333,-46.11667,T,ISL,BR,,16.0,,,,0,,-9999,America/Belem,2018-12-05,Ilha do Lombo Branco,,,,,,,,,,,,,,,,,,,,,,,,,,,,,,,,,,,,,,,,,,,,,,,,,,,,,,,,,,,,,,,,,,
26282,3411384,Banco do Cavalo,Banco do Cavalo,-2.4,-44.1,H,SHOL,BR,,13.0,,,,0,,-9999,America/Belem,1996-08-14,,,,,,,,,,,,,,,,,,,,,,,,,,,,,,,,,,,,,,,,,,,,,,,,,,,,,,,,,,,,,,,,,,,
26283,3411385,Ponta Jaguarema,Ponta Jaguarema,-2.46667,-44.2,T,PT,BR,,13.0,2111201.0,,,0,,16,America/Belem,2018-12-05,Ponta Jaguarema,,,,,,,,,,,,,,,,,,,,,,,,,,,,,,,,,,,,,,,,,,,,,,,,,,,,,,,,,,,,,,,,,,
26284,3411386,Banco do Cotovelo,Banco do Cotovelo,-2.48333,-44.31667,H,SHOL,BR,,13.0,,,,0,,0,America/Belem,1996-08-14,,,,,,,,,,,,,,,,,,,,,,,,,,,,,,,,,,,,,,,,,,,,,,,,,,,,,,,,,,,,,,,,,,,
26285,3411387,Banco do Meio,Banco do Meio,-2.28333,-44.2,H,SHOL,BR,,13.0,,,,0,,-9999,America/Belem,1996-08-14,,,,,,,,,,,,,,,,,,,,,,,,,,,,,,,,,,,,,,,,,,,,,,,,,,,,,,,,,,,,,,,,,,,
26286,3411388,Banco das Almas,Banco das Almas,-2.21667,-44.28333,H,SHOL,BR,,13.0,,,,0,,-9999,America/Belem,1996-08-14,,,,,,,,,,,,,,,,,,,,,,,,,,,,,,,,,,,,,,,,,,,,,,,,,,,,,,,,,,,,,,,,,,,
26293,3411395,Barra de Caiuaua,Barra de Caiuaua,-2.27696,-44.37944,H,ESTY,BR,,13.0,2100204.0,,,0,,-9999,America/Fortaleza,2017-12-27,,,,,,,,,,,,,,,,,,,,,,,,,,,,,,,,,,,,,,,,,,,,,,,,,,,,,,,,,,,,,,,,,,,
26294,3411396,Barra de Canelatiua,Barra de Canelatiua,-2.18142,-44.42599,H,ESTY,BR,,13.0,2100204.0,,,0,,-9999,America/Fortaleza,2017-12-27,,,,,,,,,,,,,,,,,,,,,,,,,,,,,,,,,,,,,,,,,,,,,,,,,,,,,,,,,,,,,,,,,,,
26295,3411397,Pedras de Itacolomi,Pedras de Itacolomi,-2.15686,-44.42407,T,RKS,BR,,13.0,2100204.0,,,0,,-9999,America/Fortaleza,2017-12-27,,,,,,,,,,,,,,,,,,,,,,,,,,,,,,,,,,,,,,,,,,,,,,,,,,,,,,,,,,,,,,,,,,,
26296,3411398,Canal do Pôrto Velho,Canal do Porto Velho,-6.98333,-34.86833,H,CHN,BR,,17.0,,,,0,,1,America/Recife,1996-06-20,,,,,,,,,,,,,,,,,,,,,,,,,,,,,,,,,,,,,,,,,,,,,,,,,,,,,,,,,,,,,,,,,,,
26297,3411399,Ponta Canoé,Ponta Canoe,-6.98167,-34.86333,T,PT,BR,,17.0,2503209.0,,,0,,11,America/Recife,2018-12-05,Ponta Canoe,Ponta Canoé,,,,,,,,,,,,,,,,,,,,,,,,,,,,,,,,,,,,,,,,,,,,,,,,,,,,,,,,,,,,,,,,,
26298,3411400,Ponta do Lazareto,Ponta do Lazareto,-6.98167,-34.84833,T,PT,BR,,17.0,,,,0,,1,America/Noronha,2018-12-05,Ponta do Lazareto,,,,,,,,,,,,,,,,,,,,,,,,,,,,,,,,,,,,,,,,,,,,,,,,,,,,,,,,,,,,,,,,,,
26300,3411402,Coroa Taquaruna,Coroa Taquaruna,-6.995,-34.83667,H,FLTT,BR,,17.0,,,,0,,1,America/Noronha,1996-06-20,,,,,,,,,,,,,,,,,,,,,,,,,,,,,,,,,,,,,,,,,,,,,,,,,,,,,,,,,,,,,,,,,,,
26304,3411406,Banco da Restinga,Banco da Restinga,-6.98333,-34.85833,H,FLTT,BR,,17.0,,,,0,,9,America/Noronha,1996-06-20,,,,,,,,,,,,,,,,,,,,,,,,,,,,,,,,,,,,,,,,,,,,,,,,,,,,,,,,,,,,,,,,,,,
26309,3411411,Praia da Restinga,Praia da Restinga,-6.98833,-34.84667,T,BCH,BR,,17.0,,,,0,,1,America/Noronha,2018-12-05,Praia da Restinga,,,,,,,,,,,,,,,,,,,,,,,,,,,,,,,,,,,,,,,,,,,,,,,,,,,,,,,,,,,,,,,,,,
26312,3411414,Coroa da Sororoca,Coroa da Sororoca,-6.96333,-34.83333,H,SHOL,BR,,17.0,,,,0,,-9999,America/Noronha,1996-06-20,,,,,,,,,,,,,,,,,,,,,,,,,,,,,,,,,,,,,,,,,,,,,,,,,,,,,,,,,,,,,,,,,,,
26313,3411415,Pedra Seca,Pedra Seca,-6.95833,-34.82333,T,RK,BR,,17.0,,,,0,,-9999,America/Noronha,1996-06-20,,,,,,,,,,,,,,,,,,,,,,,,,,,,,,,,,,,,,,,,,,,,,,,,,,,,,,,,,,,,,,,,,,,
26314,3411416,Banco do Tabuleiro,Banco do Tabuleiro,-6.95,-34.83,H,SHOL,BR,,17.0,,,,0,,-9999,America/Noronha,1996-06-20,,,,,,,,,,,,,,,,,,,,,,,,,,,,,,,,,,,,,,,,,,,,,,,,,,,,,,,,,,,,,,,,,,,
26315,3411417,Pedra Nova,Pedra Nova,-6.94667,-34.83833,H,RF,BR,,17.0,,,,0,,-9999,America/Noronha,1996-06-20,,,,,,,,,,,,,,,,,,,,,,,,,,,,,,,,,,,,,,,,,,,,,,,,,,,,,,,,,,,,,,,,,,,
26321,3411423,Coroa do Araçá,Coroa do Araca,-6.92167,-34.86333,H,FLTT,BR,,17.0,,,,0,,-9999,America/Recife,1996-06-20,,,,,,,,,,,,,,,,,,,,,,,,,,,,,,,,,,,,,,,,,,,,,,,,,,,,,,,,,,,,,,,,,,,
26322,3411424,Baixo de Lucena,Baixo de Lucena,-6.91556,-34.84167,H,SHOL,BR,,17.0,,,,0,,-9999,America/Noronha,1996-06-20,,,,,,,,,,,,,,,,,,,,,,,,,,,,,,,,,,,,,,,,,,,,,,,,,,,,,,,,,,,,,,,,,,,
26323,3411425,Praia da Gameleira,Praia da Gameleira,-6.91556,-34.85833,T,BCH,BR,,17.0,,,,0,,-9999,America/Noronha,2018-12-05,Praia da Gameleira,,,,,,,,,,,,,,,,,,,,,,,,,,,,,,,,,,,,,,,,,,,,,,,,,,,,,,,,,,,,,,,,,,
26326,3411428,Rio Araçá,Rio Araca,-6.92167,-34.86333,H,STM,BR,,17.0,,,,0,,-9999,America/Recife,1996-06-20,,,,,,,,,,,,,,,,,,,,,,,,,,,,,,,,,,,,,,,,,,,,,,,,,,,,,,,,,,,,,,,,,,,
26328,3411430,Ponta do Molhe,Ponta do Molhe,-6.96333,-34.84167,T,PT,BR,,17.0,2503209.0,,,0,,1,America/Noronha,2018-12-05,Ponta do Molhe,,,,,,,,,,,,,,,,,,,,,,,,,,,,,,,,,,,,,,,,,,,,,,,,,,,,,,,,,,,,,,,,,,
26329,3411431,Ponta Mãe Luíza,Ponta Mae Luiza,-5.79333,-35.18333,T,PT,BR,,22.0,,,,0,,9,America/Recife,2018-12-05,Ponta Mae Luiza,Ponta Mãe Luíza,,,,,,,,,,,,,,,,,,,,,,,,,,,,,,,,,,,,,,,,,,,,,,,,,,,,,,,,,,,,,,,,,
26330,3411432,Ponta da Areia Preta,Ponta da Areia Preta,-5.79167,-35.18667,T,PT,BR,,22.0,2408102.0,,,0,,7,America/Recife,2018-12-05,Ponta da Areia Preta,,,,,,,,,,,,,,,,,,,,,,,,,,,,,,,,,,,,,,,,,,,,,,,,,,,,,,,,,,,,,,,,,,
26331,3411433,Praia de Areia Preta,Praia de Areia Preta,-5.78833,-35.18833,T,BCH,BR,,22.0,2408102.0,,,0,,1,America/Recife,2019-12-04,Praia de Areia Preta,,,,,,,,,,,,,,,,,,,,,,,,,,,,,,,,,,,,,,,,,,,,,,,,,,,,,,,,,,,,,,,,,,
26332,3411434,Ponta Jacumã,Ponta Jacuma,-5.575,-35.19167,T,PT,BR,,22.0,,,,0,,-9999,America/Noronha,2018-12-05,Ponta Jacuma,Ponta Jacumã,,,,,,,,,,,,,,,,,,,,,,,,,,,,,,,,,,,,,,,,,,,,,,,,,,,,,,,,,,,,,,,,,
26333,3411435,Ponta do Morcego,Ponta do Morcego,-5.78333,-35.19167,T,PT,BR,,22.0,2408102.0,,,0,,9,America/Recife,2012-08-03,,,,,,,,,,,,,,,,,,,,,,,,,,,,,,,,,,,,,,,,,,,,,,,,,,,,,,,,,,,,,,,,,,,
26334,3411436,Praia do Meio,Praia do Meio,-5.77546,-35.19423,T,BCH,BR,,22.0,2408102.0,,,0,,5,America/Fortaleza,2019-12-04,Praia do Meio,,,,,,,,,,,,,,,,,,,,,,,,,,,,,,,,,,,,,,,,,,,,,,,,,,,,,,,,,,,,,,,,,,
26335,3411437,Recife de Natal,Recife de Natal,-5.76667,-35.19333,H,RF,BR,,22.0,,,,0,,1,America/Recife,1997-05-19,,,,,,,,,,,,,,,,,,,,,,,,,,,,,,,,,,,,,,,,,,,,,,,,,,,,,,,,,,,,,,,,,,,
26336,3411438,Forte dos Reis Magos,Forte dos Reis Magos,-5.7563,-35.19493,S,FT,BR,,22.0,2408102.0,,,0,,4,America/Recife,2019-12-04,Forte dos Reis Magos,,,,,,,,,,,,,,,,,,,,,,,,,,,,,,,,,,,,,,,,,,,,,,,,,,,,,,,,,,,,,,,,,,
26338,3411440,Cabeça de Negro,Cabeca de Negro,-5.74667,-35.195,H,RF,BR,,22.0,,,,0,,-9999,America/Noronha,1997-05-19,,,,,,,,,,,,,,,,,,,,,,,,,,,,,,,,,,,,,,,,,,,,,,,,,,,,,,,,,,,,,,,,,,,
26339,3411441,Baixa Grande,Baixa Grande,-5.74167,-35.195,H,RF,BR,,22.0,,,,0,,-9999,America/Noronha,1997-05-19,,,,,,,,,,,,,,,,,,,,,,,,,,,,,,,,,,,,,,,,,,,,,,,,,,,,,,,,,,,,,,,,,,,
26340,3411442,Baixinha,Baixinha,-5.75,-35.19667,H,RF,BR,,22.0,,,,0,,2,America/Recife,1997-05-19,,,,,,,,,,,,,,,,,,,,,,,,,,,,,,,,,,,,,,,,,,,,,,,,,,,,,,,,,,,,,,,,,,,
26341,3411443,Bancos das Velhas,Bancos das Velhas,-5.75667,-35.19889,H,SHOL,BR,,22.0,,,,0,,0,America/Recife,1997-05-19,,,,,,,,,,,,,,,,,,,,,,,,,,,,,,,,,,,,,,,,,,,,,,,,,,,,,,,,,,,,,,,,,,,
26342,3411444,Redinha,Redinha,-5.75333,-35.20333,P,PPL,BR,,22.0,2408102.0,,,0,,5,America/Fortaleza,2012-08-03,,,,,,,,,,,,,,,,,,,,,,,,,,,,,,,,,,,,,,,,,,,,,,,,,,,,,,,,,,,,,,,,,,,
26343,3411445,Ponta Pitangui,Ponta Pitangui,-5.625,-35.21667,T,PT,BR,,22.0,,,,0,,1,America/Noronha,2018-12-05,Ponta Pitangui,,,,,,,,,,,,,,,,,,,,,,,,,,,,,,,,,,,,,,,,,,,,,,,,,,,,,,,,,,,,,,,,,,
26344,3411446,Igreja Nossa Senhora dos Navegantes,Igreja Nossa Senhora dos Navegantes,-5.75333,-35.20333,S,CH,BR,,22.0,2408102.0,,,0,,5,America/Recife,2012-08-03,,,,,,,,,,,,,,,,,,,,,,,,,,,,,,,,,,,,,,,,,,,,,,,,,,,,,,,,,,,,,,,,,,,
26351,3411453,Baixos de Jenipabu,Baixos de Jenipabu,-5.7,-35.19167,H,RF,BR,,22.0,,,,0,,1,America/Noronha,1996-08-14,,,,,,,,,,,,,,,,,,,,,,,,,,,,,,,,,,,,,,,,,,,,,,,,,,,,,,,,,,,,,,,,,,,
26357,3411459,Ponta do Fortim,Ponta do Fortim,-7.70333,-34.83,T,PT,BR,,30.0,,,,0,,-9999,America/Noronha,2018-12-05,Ponta do Fortim,,,,,,,,,,,,,,,,,,,,,,,,,,,,,,,,,,,,,,,,,,,,,,,,,,,,,,,,,,,,,,,,,,
26358,3411460,Barra de Catuama,Barra de Catuama,-7.71667,-34.79667,T,BAR,BR,,30.0,,,,0,,-9999,America/Noronha,1996-06-05,,,,,,,,,,,,,,,,,,,,,,,,,,,,,,,,,,,,,,,,,,,,,,,,,,,,,,,,,,,,,,,,,,,
26360,3411462,Baixios de Jaguaribe,Baixios de Jaguaribe,-7.74333,-34.79667,H,RF,BR,,30.0,,,,0,,-9999,America/Noronha,1996-06-05,,,,,,,,,,,,,,,,,,,,,,,,,,,,,,,,,,,,,,,,,,,,,,,,,,,,,,,,,,,,,,,,,,,
26361,3411463,Barra da Ilha,Barra da Ilha,-7.81,-34.79667,T,BAR,BR,,30.0,,,,0,,-9999,America/Noronha,1996-06-05,,,,,,,,,,,,,,,,,,,,,,,,,,,,,,,,,,,,,,,,,,,,,,,,,,,,,,,,,,,,,,,,,,,
26362,3411464,Praia de Bom Jesus,Praia de Bom Jesus,-7.79333,-34.83667,T,BCH,BR,,30.0,,,,0,,-9999,America/Noronha,2018-12-05,Praia de Bom Jesus,,,,,,,,,,,,,,,,,,,,,,,,,,,,,,,,,,,,,,,,,,,,,,,,,,,,,,,,,,,,,,,,,,
26363,3411465,Coroa do Macaco,Coroa do Macaco,-7.79778,-34.81889,H,SHOL,BR,,30.0,,,,0,,-9999,America/Noronha,1996-06-05,,,,,,,,,,,,,,,,,,,,,,,,,,,,,,,,,,,,,,,,,,,,,,,,,,,,,,,,,,,,,,,,,,,
26364,3411466,Barreta de Maria Farinha,Barreta de Maria Farinha,-7.87,-34.81333,T,BAR,BR,,30.0,,,,0,,-9999,America/Noronha,1996-06-05,,,,,,,,,,,,,,,,,,,,,,,,,,,,,,,,,,,,,,,,,,,,,,,,,,,,,,,,,,,,,,,,,,,
26366,3411468,Forte de Orange,Forte de Orange,-7.81333,-34.83833,S,FT,BR,,30.0,,,,0,,-9999,America/Noronha,1996-06-05,,,,,,,,,,,,,,,,,,,,,,,,,,,,,,,,,,,,,,,,,,,,,,,,,,,,,,,,,,,,,,,,,,,
26367,3411469,Baixo Grande,Baixo Grande,-3.84798,-33.81412,H,RF,BR,,30.0,,,,0,,-9999,America/Noronha,2017-04-07,,,,,,,,,,,,,,,,,,,,,,,,,,,,,,,,,,,,,,,,,,,,,,,,,,,,,,,,,,,,,,,,,,,
26368,3411470,Baixo de Fóra,Baixo de Fora,-3.85349,-33.79251,H,RF,BR,,30.0,,,,0,,-9999,America/Noronha,2017-04-07,,,,,,,,,,,,,,,,,,,,,,,,,,,,,,,,,,,,,,,,,,,,,,,,,,,,,,,,,,,,,,,,,,,
26369,3411471,Barreta de NW,Barreta de NW,-3.85961,-33.81805,H,INLT,BR,,30.0,,,,0,,-9999,America/Noronha,2017-04-07,,,,,,,,,,,,,,,,,,,,,,,,,,,,,,,,,,,,,,,,,,,,,,,,,,,,,,,,,,,,,,,,,,,
26370,3411472,Barreta de NE,Barreta de NE,-3.85501,-33.80493,H,INLT,BR,,30.0,,,,0,,-2,America/Noronha,2017-04-07,,,,,,,,,,,,,,,,,,,,,,,,,,,,,,,,,,,,,,,,,,,,,,,,,,,,,,,,,,,,,,,,,,,
26588,3411690,Ponta Fina,Ponta Fina,-0.36667,-48.38333,T,PT,BR,,16.0,,,,0,,0,America/Belem,2018-12-05,Ponta Fina,,,,,,,,,,,,,,,,,,,,,,,,,,,,,,,,,,,,,,,,,,,,,,,,,,,,,,,,,,,,,,,,,,
26589,3411691,Ponta de Capivara,Ponta de Capivara,-0.33333,-48.38333,T,PT,BR,,16.0,,,,0,,0,America/Belem,2018-12-05,Ponta de Capivara,,,,,,,,,,,,,,,,,,,,,,,,,,,,,,,,,,,,,,,,,,,,,,,,,,,,,,,,,,,,,,,,,,
26590,3411692,Ponta do Amoroso,Ponta do Amoroso,-0.28333,-48.38333,T,PT,BR,,16.0,,,,0,,19,America/Belem,2018-12-05,Ponta do Amoroso,,,,,,,,,,,,,,,,,,,,,,,,,,,,,,,,,,,,,,,,,,,,,,,,,,,,,,,,,,,,,,,,,,
26591,3411693,Banco Rabo da Onça,Banco Rabo da Onca,-0.26667,-48.36667,H,SHOL,BR,,16.0,,,,0,,-9999,America/Belem,1997-04-02,,,,,,,,,,,,,,,,,,,,,,,,,,,,,,,,,,,,,,,,,,,,,,,,,,,,,,,,,,,,,,,,,,,
26598,3411700,Cabeço do Joca,Cabeco do Joca,-0.43333,-48.18333,H,SHOL,BR,,16.0,,,,0,,-9999,America/Belem,1997-04-02,,,,,,,,,,,,,,,,,,,,,,,,,,,,,,,,,,,,,,,,,,,,,,,,,,,,,,,,,,,,,,,,,,,
26599,3411701,Banco São João,Banco Sao Joao,-0.46667,-48.11667,H,SHOL,BR,,16.0,,,,0,,-9999,America/Belem,1997-04-02,,,,,,,,,,,,,,,,,,,,,,,,,,,,,,,,,,,,,,,,,,,,,,,,,,,,,,,,,,,,,,,,,,,
26601,3411703,Banco Monjuí,Banco Monjui,-0.28333,-48.05833,H,SHOL,BR,,16.0,,,,0,,-9999,America/Belem,1997-04-02,,,,,,,,,,,,,,,,,,,,,,,,,,,,,,,,,,,,,,,,,,,,,,,,,,,,,,,,,,,,,,,,,,,
26602,3411704,Banco Xingu,Banco Xingu,-0.36667,-47.95,H,SHOL,BR,,16.0,,,,0,,-9999,America/Belem,1997-04-02,,,,,,,,,,,,,,,,,,,,,,,,,,,,,,,,,,,,,,,,,,,,,,,,,,,,,,,,,,,,,,,,,,,
26603,3411705,Banco do Clemente,Banco do Clemente,-0.43333,-48.03333,H,SHOL,BR,,16.0,,,,0,,-9999,America/Belem,1997-04-02,,,,,,,,,,,,,,,,,,,,,,,,,,,,,,,,,,,,,,,,,,,,,,,,,,,,,,,,,,,,,,,,,,,
26604,3411706,Cabeço do Sul,Cabeco do Sul,-0.45833,-48.0,H,SHOL,BR,,16.0,,,,0,,-9999,America/Belem,1997-04-02,,,,,,,,,,,,,,,,,,,,,,,,,,,,,,,,,,,,,,,,,,,,,,,,,,,,,,,,,,,,,,,,,,,
26605,3411707,Cabeço do Norte,Cabeco do Norte,-0.39167,-47.93333,H,SHOL,BR,,16.0,,,,0,,-9999,America/Belem,1997-04-02,,,,,,,,,,,,,,,,,,,,,,,,,,,,,,,,,,,,,,,,,,,,,,,,,,,,,,,,,,,,,,,,,,,
26606,3411708,Cabeço do Meio,Cabeco do Meio,-0.45,-47.96667,H,SHOL,BR,,16.0,,,,0,,-9999,America/Belem,1997-04-02,,,,,,,,,,,,,,,,,,,,,,,,,,,,,,,,,,,,,,,,,,,,,,,,,,,,,,,,,,,,,,,,,,,
26607,3411709,Coroa do Fuzil,Coroa do Fuzil,-0.63333,-48.04167,H,SHOL,BR,,16.0,,,,0,,-9999,America/Belem,1997-04-02,,,,,,,,,,,,,,,,,,,,,,,,,,,,,,,,,,,,,,,,,,,,,,,,,,,,,,,,,,,,,,,,,,,
26608,3411710,Coroa das Gaviotas,Coroa das Gaviotas,-0.58333,-48.025,H,SHOL,BR,,16.0,,,,0,,-9999,America/Belem,1997-04-02,,,,,,,,,,,,,,,,,,,,,,,,,,,,,,,,,,,,,,,,,,,,,,,,,,,,,,,,,,,,,,,,,,,
26609,3411711,Bancos da Tijoca,Bancos da Tijoca,-0.48333,-48.025,H,SHOL,BR,,16.0,,,,0,,-9999,America/Belem,1997-04-02,,,,,,,,,,,,,,,,,,,,,,,,,,,,,,,,,,,,,,,,,,,,,,,,,,,,,,,,,,,,,,,,,,,
26610,3411712,Coroa do Maluco,Coroa do Maluco,-0.63333,-47.975,H,SHOL,BR,,16.0,,,,0,,-9999,America/Belem,1997-04-02,,,,,,,,,,,,,,,,,,,,,,,,,,,,,,,,,,,,,,,,,,,,,,,,,,,,,,,,,,,,,,,,,,,
26611,3411713,Canal dos Poções,Canal dos Pocoes,-0.48333,-48.025,H,CHN,BR,,16.0,,,,0,,-9999,America/Belem,1997-04-02,,,,,,,,,,,,,,,,,,,,,,,,,,,,,,,,,,,,,,,,,,,,,,,,,,,,,,,,,,,,,,,,,,,
26612,3411714,Baía de Tapari,Baia de Tapari,-0.59167,-47.96667,H,BAY,BR,,16.0,,,,0,,-9999,America/Belem,1997-04-02,,,,,,,,,,,,,,,,,,,,,,,,,,,,,,,,,,,,,,,,,,,,,,,,,,,,,,,,,,,,,,,,,,,
26613,3411715,Banco de Forno,Banco de Forno,-0.48333,-47.88333,H,SHOL,BR,,16.0,,,,0,,-9999,America/Belem,1997-04-02,,,,,,,,,,,,,,,,,,,,,,,,,,,,,,,,,,,,,,,,,,,,,,,,,,,,,,,,,,,,,,,,,,,
26617,3411719,Ilha de Curuça,Ilha de Curuca,-0.55,-47.80833,T,ISL,BR,,16.0,,,,0,,1,America/Belem,2018-12-05,Ilha de Curuca,Ilha de Curuça,,,,,,,,,,,,,,,,,,,,,,,,,,,,,,,,,,,,,,,,,,,,,,,,,,,,,,,,,,,,,,,,,
26618,3411720,Ponta de Piraquembaua,Ponta de Piraquembaua,-0.53333,-47.70833,T,PT,BR,,16.0,,,,0,,-9999,America/Belem,2018-12-05,Ponta de Piraquembaua,,,,,,,,,,,,,,,,,,,,,,,,,,,,,,,,,,,,,,,,,,,,,,,,,,,,,,,,,,,,,,,,,,
26619,3411721,Ponta do Algodoal,Ponta do Algodoal,-0.56667,-47.575,T,PT,BR,,16.0,,,,0,,-9999,America/Belem,2018-12-05,Ponta do Algodoal,,,,,,,,,,,,,,,,,,,,,,,,,,,,,,,,,,,,,,,,,,,,,,,,,,,,,,,,,,,,,,,,,,
26621,3411723,Baía de Marapanim,Baia de Marapanim,-0.6,-47.60833,H,BAY,BR,,16.0,,,,0,,-9999,America/Belem,1997-04-02,,,,,,,,,,,,,,,,,,,,,,,,,,,,,,,,,,,,,,,,,,,,,,,,,,,,,,,,,,,,,,,,,,,
26622,3411724,Banco Cajutuba,Banco Cajutuba,-0.5,-47.75,H,SHOL,BR,,16.0,,,,0,,-9999,America/Belem,1997-04-02,,,,,,,,,,,,,,,,,,,,,,,,,,,,,,,,,,,,,,,,,,,,,,,,,,,,,,,,,,,,,,,,,,,
26623,3411725,Banco Piraquembaua da Terra,Banco Piraquembaua da Terra,-0.525,-47.7,H,SHOL,BR,,16.0,,,,0,,-9999,America/Belem,1997-04-02,,,,,,,,,,,,,,,,,,,,,,,,,,,,,,,,,,,,,,,,,,,,,,,,,,,,,,,,,,,,,,,,,,,
26625,3411727,Banco de Maracanã,Banco de Maracana,-0.51667,-47.5,H,SHOL,BR,,16.0,,,,0,,-9999,America/Belem,1997-04-02,,,,,,,,,,,,,,,,,,,,,,,,,,,,,,,,,,,,,,,,,,,,,,,,,,,,,,,,,,,,,,,,,,,
26626,3411728,Banco de Salinas,Banco de Salinas,-0.55,-47.36667,H,SHOL,BR,,16.0,,,,0,,-9999,America/Belem,1997-04-02,,,,,,,,,,,,,,,,,,,,,,,,,,,,,,,,,,,,,,,,,,,,,,,,,,,,,,,,,,,,,,,,,,,
26627,3411729,Ponta da Marieta,Ponta da Marieta,-0.58333,-47.43333,T,PT,BR,,16.0,,,,0,,1,America/Belem,2018-12-05,Ponta da Marieta,,,,,,,,,,,,,,,,,,,,,,,,,,,,,,,,,,,,,,,,,,,,,,,,,,,,,,,,,,,,,,,,,,
26632,3411735,Pedra da Cerveja,Pedra da Cerveja,-0.58333,-47.43333,T,RK,BR,,16.0,,,,0,,1,America/Belem,1997-04-02,,,,,,,,,,,,,,,,,,,,,,,,,,,,,,,,,,,,,,,,,,,,,,,,,,,,,,,,,,,,,,,,,,,
26633,3411736,Pedras Manoel Luís,Pedras Manoel Luis,-0.54167,-47.31667,T,RKS,BR,,16.0,,,,0,,-9999,America/Belem,1997-04-02,,,,,,,,,,,,,,,,,,,,,,,,,,,,,,,,,,,,,,,,,,,,,,,,,,,,,,,,,,,,,,,,,,,
26634,3411737,Cabeço do Norte,Cabeco do Norte,-0.3,-47.75833,H,SHOL,BR,,16.0,,,,0,,-9999,America/Belem,1997-04-02,,,,,,,,,,,,,,,,,,,,,,,,,,,,,,,,,,,,,,,,,,,,,,,,,,,,,,,,,,,,,,,,,,,
26635,3411738,Cabeço do Sul,Cabeco do Sul,-0.35,-47.73333,H,SHOL,BR,,16.0,,,,0,,-9999,America/Belem,1997-04-02,,,,,,,,,,,,,,,,,,,,,,,,,,,,,,,,,,,,,,,,,,,,,,,,,,,,,,,,,,,,,,,,,,,
26636,3411739,Banco Piraquembaua de Fora,Banco Piraquembaua de Fora,-0.31667,-47.70833,H,SHOL,BR,,16.0,,,,0,,-9999,America/Belem,1997-04-02,,,,,,,,,,,,,,,,,,,,,,,,,,,,,,,,,,,,,,,,,,,,,,,,,,,,,,,,,,,,,,,,,,,
26637,3411740,Ponta Boiuçucanga,Ponta Boiucucanga,-0.79167,-46.63333,T,PT,BR,,16.0,,,,0,,1,America/Costa_Rica,2018-12-05,Ponta Boiucucanga,Ponta Boiuçucanga,,,,,,,,,,,,,,,,,,,,,,,,,,,,,,,,,,,,,,,,,,,,,,,,,,,,,,,,,,,,,,,,,
26639,3411742,Rio Curuça,Rio Curuca,-0.66667,-47.83333,H,ESTY,BR,,16.0,,,,0,,1,America/Belem,2021-08-07,Rio Curuca,Rio Curuça,,,,,,,,,,,,,,,,,,,,,,,,,,,,,,,,,,,,,,,,,,,,,,,,,,,,,,,,,,,,,,,,,
26812,3444628,Corixa do Destacamento,Corixa do Destacamento,-16.88333,-58.46667,H,STM,BR,BO$BR,0.0,,,,0,,100,America/Cuiaba,2009-03-07,Corixa do Destacamento,Curiche Destacamento,,,,,,,,,,,,,,,,,,,,,,,,,,,,,,,,,,,,,,,,,,,,,,,,,,,,,,,,,,,,,,,,,
26814,3444783,Praia Zumbi,Praia Zumbi,-22.81667,-43.16667,T,BCH,BR,,21.0,,,,0,,1,America/Sao_Paulo,2012-12-05,Praia Zumbi,,,,,,,,,,,,,,,,,,,,,,,,,,,,,,,,,,,,,,,,,,,,,,,,,,,,,,,,,,,,,,,,,,
26828,3444797,Ponta de Zimbros,Ponta de Zimbros,-27.22088,-48.51284,T,PT,BR,,26.0,,,,0,,17,America/Sao_Paulo,2018-10-05,Ponta Zimbo,Ponta Zimbos,Ponta Zimbros,Ponta de Zimbros,Ponta do Zimbro,Ponta dos Zimbros,,,,,,,,,,,,,,,,,,,,,,,,,,,,,,,,,,,,,,,,,,,,,,,,,,,,,,,,,,,,,
26949,3444918,Ilha da Vitória,Ilha da Vitoria,-23.75,-45.01667,T,ISL,BR,,27.0,,,,0,,32,America/Sao_Paulo,2020-06-11,Buzios Islands,Ilha da Victoria,Ilha da Vitoria,Ilha da Vitória,,,,,,,,,,,,,,,,,,,,,,,,,,,,,,,,,,,,,,,,,,,,,,,,,,,,,,,,,,,,,,,
26950,3444919,Banco Vitória,Banco Vitoria,-20.75,-37.75,H,BNK,BR,,0.0,,,,0,,-9999,America/Bahia,2020-06-11,Banco Victoria,Banco Vitoria,Banco Vitória,,,,,,,,,,,,,,,,,,,,,,,,,,,,,,,,,,,,,,,,,,,,,,,,,,,,,,,,,,,,,,,,
26996,3444965,Ponta da Vista,Ponta da Vista,-23.95,-45.43333,T,PT,BR,,27.0,,,,0,,-9999,America/Sao_Paulo,2013-03-05,Ponta da Vista,,,,,,,,,,,,,,,,,,,,,,,,,,,,,,,,,,,,,,,,,,,,,,,,,,,,,,,,,,,,,,,,,,
27025,3444994,Ilha Viraponga,Ilha Viraponga,-22.783,-43.1379,T,ISL,BR,,21.0,3304557.0,,,0,,-9999,America/Sao_Paulo,2017-12-07,Ilha Viraponga,Ilha da Viraponga,,,,,,,,,,,,,,,,,,,,,,,,,,,,,,,,,,,,,,,,,,,,,,,,,,,,,,,,,,,,,,,,,
27126,3445096,Rio da Vila,Rio da Vila,-16.45,-39.05,H,STM,BR,,5.0,,,,0,,-9999,America/Bahia,2012-01-19,Corrego da Vila,Córrego da Vila,Rio da Vila,,,,,,,,,,,,,,,,,,,,,,,,,,,,,,,,,,,,,,,,,,,,,,,,,,,,,,,,,,,,,,,,
27130,3445100,Ponta do Vigia,Ponta do Vigia,-26.77319,-48.59669,T,PT,BR,,26.0,4212502.0,,,0,,11,America/Sao_Paulo,2016-06-13,Ponta Jurubatuba,Ponta do Vigia,,,,,,,,,,,,,,,,,,,,,,,,,,,,,,,,,,,,,,,,,,,,,,,,,,,,,,,,,,,,,,,,,
27159,3445129,Recifes da Viçosa,Recifes da Vicosa,-17.98984,-39.25655,H,RF,BR,,5.0,,,,0,,-9999,America/Bahia,2021-09-28,Barra de Vicosa,Barra de Viçosa,Recife da Vicosa,Recife da Viçosa,Recifes da Vicosa,Recifes da Viçosa,,,,,,,,,,,,,,,,,,,,,,,,,,,,,,,,,,,,,,,,,,,,,,,,,,,,,,,,,,,,,
27181,3445151,Ilha do Viana,Ilha do Viana,-22.8638,-43.12861,T,ISL,BR,,21.0,,,,0,,0,America/Sao_Paulo,2019-02-21,Ilha do Viana,Ilha do Vianna,,,,,,,,,,,,,,,,,,,,,,,,,,,,,,,,,,,,,,,,,,,,,,,,,,,,,,,,,,,,,,,,,
27245,3445216,Coroa Vermelha,Coroa Vermelha,-17.95849,-39.20506,T,ISL,BR,,5.0,,,,0,,-9999,America/Bahia,2014-04-09,Coroa Vermelha,Recife Coroa Vermelha,,,,,,,,,,,,,,,,,,,,,,,,,,,,,,,,,,,,,,,,,,,,,,,,,,,,,,,,,,,,,,,,,
27397,3445368,Ponta das Velhas,Ponta das Velhas,-23.18341,-44.11401,T,PT,BR,,21.0,3300100.0,,,0,,22,America/Sao_Paulo,2014-04-21,Ponta das Velhas,,,,,,,,,,,,,,,,,,,,,,,,,,,,,,,,,,,,,,,,,,,,,,,,,,,,,,,,,,,,,,,,,,
27401,3445372,Arroio Velhaco,Arroio Velhaco,-30.9,-51.48333,H,STM,BR,,23.0,,,,0,,-9999,America/Sao_Paulo,2012-01-19,Arroio Velhaco,Arroio do Velhaco,,,,,,,,,,,,,,,,,,,,,,,,,,,,,,,,,,,,,,,,,,,,,,,,,,,,,,,,,,,,,,,,,
27588,3445559,Ponta da Varanda,Ponta da Varanda,-23.83756,-45.49316,T,PT,BR,,27.0,3550704.0,,,0,,24,America/Sao_Paulo,2016-06-15,Ponta da Varanda,,,,,,,,,,,,,,,,,,,,,,,,,,,,,,,,,,,,,,,,,,,,,,,,,,,,,,,,,,,,,,,,,,
27610,3445581,Laje Valhalla,Laje Valhalla,-20.47187,-28.87661,T,RK,BR,,8.0,,,,0,,-9999,America/Noronha,2017-12-26,,,,,,,,,,,,,,,,,,,,,,,,,,,,,,,,,,,,,,,,,,,,,,,,,,,,,,,,,,,,,,,,,,,
27622,3445593,Saco do Valente,Saco do Valente,-22.78173,-43.15624,H,COVE,BR,,21.0,,,,0,,-9999,America/Sao_Paulo,2012-01-19,Saco do Valente,,,,,,,,,,,,,,,,,,,,,,,,,,,,,,,,,,,,,,,,,,,,,,,,,,,,,,,,,,,,,,,,,,
27804,3445775,Praia do Una,Praia do Una,-24.48176,-47.12937,T,BCH,BR,,27.0,,,,0,,-9999,America/Sao_Paulo,2016-06-15,,,,,,,,,,,,,,,,,,,,,,,,,,,,,,,,,,,,,,,,,,,,,,,,,,,,,,,,,,,,,,,,,,,
27807,3445778,Una,Una,-20.63333,-40.45,P,PPL,BR,,8.0,3202405.0,,,0,,8,America/Sao_Paulo,2018-07-23,Una,,,,,,,,,,,,,,,,,,,,,,,,,,,,,,,,,,,,,,,,,,,,,,,,,,,,,,,,,,,,,,,,,,
27871,3445844,Baía de Ubatumirim,Baia de Ubatumirim,-23.35679,-44.9082,H,BAY,BR,,27.0,,,,0,,-9999,America/Sao_Paulo,2020-06-11,Baia Batumirim,Baia de Ubatumirim,Baía Batumirim,Baía de Ubatumirim,Enseada de Ubatumirim,,,,,,,,,,,,,,,,,,,,,,,,,,,,,,,,,,,,,,,,,,,,,,,,,,,,,,,,,,,,,,
27872,3445845,Baía de Ubatuba,Baia de Ubatuba,-23.45,-45.03333,H,BAY,BR,,27.0,,,,0,,-9999,America/Sao_Paulo,2020-06-11,Baia de Ubatuba,Baía de Ubatuba,Enseada de Ubatuba,,,,,,,,,,,,,,,,,,,,,,,,,,,,,,,,,,,,,,,,,,,,,,,,,,,,,,,,,,,,,,,,
27902,3445875,Rio Turvo,Rio Turvo,-27.26667,-54.1,H,STM,BR,,23.0,,,,0,,298,America/Sao_Paulo,2021-08-10,Rio Cebolati,Rio Cebolaty,Rio Turvo,Turvo River,,,,,,,,,,,,,,,,,,,,,,,,,,,,,,,,,,,,,,,,,,,,,,,,,,,,,,,,,,,,,,,
27935,3445908,Arroio Turuçu,Arroio Turucu,-31.5,-52.0,H,STM,BR,,23.0,,,,0,,-9999,America/Sao_Paulo,2012-01-19,Arroio Turacu,Arroio Turaçu,Arroio Turucu,Arroio Turuçu,,,,,,,,,,,,,,,,,,,,,,,,,,,,,,,,,,,,,,,,,,,,,,,,,,,,,,,,,,,,,,,
28013,3445986,Praia de Tubiacanga,Praia de Tubiacanga,-22.78933,-43.23128,T,BCH,BR,,21.0,3304557.0,,,0,,1,America/Sao_Paulo,2016-06-22,Praia de Tubiacanga,,,,,,,,,,,,,,,,,,,,,,,,,,,,,,,,,,,,,,,,,,,,,,,,,,,,,,,,,,,,,,,,,,
28014,3445987,Ponta de Tubiacanga,Ponta de Tubiacanga,-22.78439,-43.22998,T,PT,BR,,21.0,,,,0,,1,America/Sao_Paulo,2012-01-19,Ponta de Tubiacanga,,,,,,,,,,,,,,,,,,,,,,,,,,,,,,,,,,,,,,,,,,,,,,,,,,,,,,,,,,,,,,,,,,
28019,3445992,Ponta do Tubarão,Ponta do Tubarao,-20.28333,-40.23333,T,PT,BR,,8.0,,,,0,,-9999,America/Sao_Paulo,2012-12-05,Ponta do Tubarao,Ponta do Tubarão,,,,,,,,,,,,,,,,,,,,,,,,,,,,,,,,,,,,,,,,,,,,,,,,,,,,,,,,,,,,,,,,,
28021,3445994,Tubarão,Tubarao,-20.28333,-40.23333,P,PPL,BR,,8.0,3205309.0,,,0,,-9999,America/Sao_Paulo,2018-07-23,Tubarao,Tubarão,,,,,,,,,,,,,,,,,,,,,,,,,,,,,,,,,,,,,,,,,,,,,,,,,,,,,,,,,,,,,,,,,
28040,3446013,Cabo Tromba Grande,Cabo Tromba Grande,-14.3,-38.96667,T,CAPE,BR,,5.0,,,,0,,-9999,America/Bahia,2012-01-19,Cabo Tromba Grande,Ponta Tromba Grande,Ponta Trombo Grande,,,,,,,,,,,,,,,,,,,,,,,,,,,,,,,,,,,,,,,,,,,,,,,,,,,,,,,,,,,,,,,,
28062,3446035,Ilha da Trindade,Ilha da Trindade,-20.51016,-29.32642,T,ISL,BR,,8.0,3205309.0,,,0,,508,America/Noronha,2017-12-26,Ilha da Trindade,Ilha da Trinidade,Trindade,Trinidad,,,,,,,,,,,,,,,,,,,,,,,,,,,,,,,,,,,,,,,,,,,,,,,,,,,,,,,,,,,,,,,
28135,3446108,Arquipélago Três Irmãs,Arquipelago Tres Irmas,-27.835,-48.51611,T,ISLS,BR,,26.0,,,,0,,-9999,America/Sao_Paulo,2012-01-19,Arquipelago Tres Irmas,Arquipélago Três Irmãs,Ilhas Tres Irmaos,Ilhas Três Irmãos,,,,,,,,,,,,,,,,,,,,,,,,,,,,,,,,,,,,,,,,,,,,,,,,,,,,,,,,,,,,,,,
28320,3446294,Recife das Tôrres,Recife das Torres,-29.31667,-49.68333,H,RF,BR,,26.0,,,,0,,-9999,America/Sao_Paulo,2020-06-11,Ilha dos Lobos,Recife das Torres,Recife das Tôrres,Recifes Torres,Recifes Tôrres,,,,,,,,,,,,,,,,,,,,,,,,,,,,,,,,,,,,,,,,,,,,,,,,,,,,,,,,,,,,,,
28350,3446324,Ponta do Toque-Toque,Ponta do Toque-Toque,-23.84155,-45.51423,T,PT,BR,,27.0,3550704.0,,,0,,15,America/Sao_Paulo,2016-06-15,Ponta do Toque-Toque,,,,,,,,,,,,,,,,,,,,,,,,,,,,,,,,,,,,,,,,,,,,,,,,,,,,,,,,,,,,,,,,,,
28352,3446326,Ilha do Toque-Toque,Ilha do Toque-Toque,-23.85028,-45.52344,T,ISL,BR,,27.0,3550704.0,,,0,,125,America/Sao_Paulo,2016-06-15,Ilha do Toque-Toque,,,,,,,,,,,,,,,,,,,,,,,,,,,,,,,,,,,,,,,,,,,,,,,,,,,,,,,,,,,,,,,,,,
28361,3446335,Ponta das Toninhas,Ponta das Toninhas,-23.5,-45.06667,T,PT,BR,,27.0,,,,0,,-9999,America/Sao_Paulo,2013-03-05,Ponta das Toninhas,,,,,,,,,,,,,,,,,,,,,,,,,,,,,,,,,,,,,,,,,,,,,,,,,,,,,,,,,,,,,,,,,,
28454,3446428,Ilha Tipitinga,Ilha Tipitinga,-26.51686,-48.58322,T,ISL,BR,,26.0,4202057.0,,,0,,-9999,America/Sao_Paulo,2016-06-13,Grande dos Lobos,Ilha Tapitanga,Ilha Tipitinga,,,,,,,,,,,,,,,,,,,,,,,,,,,,,,,,,,,,,,,,,,,,,,,,,,,,,,,,,,,,,,,,
28455,3446429,Ponta do Tipitimirim,Ponta do Tipitimirim,-22.77566,-43.17231,T,PT,BR,,21.0,3304557.0,,,0,,3,America/Sao_Paulo,2012-08-03,Ponta do Tipitimirim,,,,,,,,,,,,,,,,,,,,,,,,,,,,,,,,,,,,,,,,,,,,,,,,,,,,,,,,,,,,,,,,,,
28456,3446430,Ilha Tipiti-Açú,Ilha Tipiti-Acu,-22.76822,-43.16793,T,ISL,BR,,21.0,,,,0,,-9999,America/Sao_Paulo,2020-06-11,Ilha Tipiti-Acu,Ilha Tipiti-Açú,Ilha do Tipiti,Ilhote Tipiti-Acu,Ilhote Tipiti-Açu,,,,,,,,,,,,,,,,,,,,,,,,,,,,,,,,,,,,,,,,,,,,,,,,,,,,,,,,,,,,,,
28497,3446471,Recifes das Timbebas,Recifes das Timbebas,-17.46667,-39.01667,H,RF,BR,,5.0,,,,0,,-9999,America/Bahia,2012-12-05,Recifes das Timbebas,,,,,,,,,,,,,,,,,,,,,,,,,,,,,,,,,,,,,,,,,,,,,,,,,,,,,,,,,,,,,,,,,,
28502,3446476,Riacho Tijuípe,Riacho Tijuipe,-14.41667,-39.0,H,STM,BR,,5.0,,,,0,,-9999,America/Bahia,1993-12-17,,,,,,,,,,,,,,,,,,,,,,,,,,,,,,,,,,,,,,,,,,,,,,,,,,,,,,,,,,,,,,,,,,,
28524,3446498,Ilhas Tijucas,Ilhas Tijucas,-23.0308,-43.29231,T,ISLS,BR,,21.0,,,,0,,-9999,America/Sao_Paulo,2012-01-19,Ilhas Tijucas,,,,,,,,,,,,,,,,,,,,,,,,,,,,,,,,,,,,,,,,,,,,,,,,,,,,,,,,,,,,,,,,,,
28525,3446499,Baía das Tijucas,Baia das Tijucas,-27.26604,-48.59497,H,BAY,BR,,26.0,,,,0,,-9999,America/Sao_Paulo,2020-06-11,Bahia das Tijucas,Baia Tijucas,Baia das Tijucas,Baía Tijucas,Baía das Tijucas,Enseada das Tijucas,Enseada de Tijucas,Enseadas de Tijucas,,,,,,,,,,,,,,,,,,,,,,,,,,,,,,,,,,,,,,,,,,,,,,,,,,,,,,,,,,,
28531,3446505,Lagoa da Tijuca,Lagoa da Tijuca,-22.99225,-43.33643,H,LGN,BR,,21.0,,,,0,,0,America/Sao_Paulo,2019-02-21,Lagoa da Tijuca,,,,,,,,,,,,,,,,,,,,,,,,,,,,,,,,,,,,,,,,,,,,,,,,,,,,,,,,,,,,,,,,,,
28715,3446690,Rio Tatuí,Rio Tatui,-24.1,-54.31667,H,STM,BR,,18.0,,,,0,,217,America/Campo_Grande,2021-08-06,Rio Tatui,Rio Tatuí,,,,,,,,,,,,,,,,,,,,,,,,,,,,,,,,,,,,,,,,,,,,,,,,,,,,,,,,,,,,,,,,,
28723,3446698,Ilha do Tatu,Ilha do Tatu,-22.98561,-43.70469,T,ISL,BR,,21.0,,,,0,,-9999,America/Sao_Paulo,2012-01-19,Ilha do Tatu,,,,,,,,,,,,,,,,,,,,,,,,,,,,,,,,,,,,,,,,,,,,,,,,,,,,,,,,,,,,,,,,,,
28805,3446780,Ilha do Taquari,Ilha do Taquari,-32.9,-53.28333,T,ISL,BR,,23.0,,,,0,,2,America/Sao_Paulo,2012-01-19,Ilha Grande do Taquari,Ilha Grande do Taquarí,Ilha da Harmonia,Ilha do Taquari,Ilhas Taquary,Ilhas del Tacuari,Ilhas del Tacuarí,,,,,,,,,,,,,,,,,,,,,,,,,,,,,,,,,,,,,,,,,,,,,,,,,,,,,,,,,,,,
28903,3446878,Saco de Tapes,Saco de Tapes,-30.7,-51.35,H,BAY,BR,,23.0,,,,0,,-9999,America/Sao_Paulo,1993-12-17,,,,,,,,,,,,,,,,,,,,,,,,,,,,,,,,,,,,,,,,,,,,,,,,,,,,,,,,,,,,,,,,,,,
28904,3446879,Ponta de Tapes,Ponta de Tapes,-30.81667,-51.28333,T,PT,BR,,23.0,,,,0,,-9999,America/Sao_Paulo,2012-01-19,Ponta de Tapes,Ponta dos Tapes,,,,,,,,,,,,,,,,,,,,,,,,,,,,,,,,,,,,,,,,,,,,,,,,,,,,,,,,,,,,,,,,,
29026,3447001,Tamboretes,Tamboretes,-26.37801,-48.52341,T,ISLS,BR,,26.0,4216206.0,,,0,,-9999,America/Sao_Paulo,2016-06-13,Ilhas Tamboretes,Tamboretes,Tamboretes Islands,,,,,,,,,,,,,,,,,,,,,,,,,,,,,,,,,,,,,,,,,,,,,,,,,,,,,,,,,,,,,,,,
29048,3447024,Ilha do Tamanduá,Ilha do Tamandua,-23.6,-45.28333,T,ISL,BR,,27.0,,,,0,,5,America/Sao_Paulo,2013-03-05,Ilha do Tamandua,Ilha do Tamanduá,,,,,,,,,,,,,,,,,,,,,,,,,,,,,,,,,,,,,,,,,,,,,,,,,,,,,,,,,,,,,,,,,
29077,3447053,Taipoca,Taipoca,-13.01667,-38.61667,P,PPL,BR,,5.0,2933208.0,,,0,,-9999,America/Bahia,2018-07-23,,,,,,,,,,,,,,,,,,,,,,,,,,,,,,,,,,,,,,,,,,,,,,,,,,,,,,,,,,,,,,,,,,,
29106,3447082,Ponta do Tagano,Ponta do Tagano,-20.32011,-40.2743,T,PT,BR,,8.0,3205200.0,,,0,,-9999,America/Sao_Paulo,2018-11-29,Ponta do Tagano,,,,,,,,,,,,,,,,,,,,,,,,,,,,,,,,,,,,,,,,,,,,,,,,,,,,,,,,,,,,,,,,,,
29113,3447089,Ponta de Tacunduba,Ponta de Tacunduba,-23.19637,-44.27036,T,PT,BR,,21.0,,,,0,,15,America/Sao_Paulo,2022-11-11,Ponta Tacunduba,Ponta Tucunduva,Ponta de Tacunduba,Ponta de Tucunduba,,,,,,,,,,,,,,,,,,,,,,,,,,,,,,,,,,,,,,,,,,,,,,,,,,,,,,,,,,,,,,,
29116,3447092,Tacimirim,Tacimirim,-13.58333,-38.9,P,PPL,BR,,5.0,2905404.0,,,0,,-9999,America/Bahia,2018-07-23,,,,,,,,,,,,,,,,,,,,,,,,,,,,,,,,,,,,,,,,,,,,,,,,,,,,,,,,,,,,,,,,,,,
29125,3447101,Ilha Tacami,Ilha Tacami,-28.3519,-48.60128,T,ISL,BR,,26.0,,,,0,,-9999,America/Sao_Paulo,2011-07-07,Ilha Itacolomi,Ilha Itacotamy,Ilha Tacami,,,,,,,,,,,,,,,,,,,,,,,,,,,,,,,,,,,,,,,,,,,,,,,,,,,,,,,,,,,,,,,,
29221,3447197,Lagoa da Tabatinga,Lagoa da Tabatinga,-13.96667,-38.91667,H,LGN,BR,,5.0,,,,0,,-9999,America/Bahia,1993-12-17,,,,,,,,,,,,,,,,,,,,,,,,,,,,,,,,,,,,,,,,,,,,,,,,,,,,,,,,,,,,,,,,,,,
29226,3447202,Tabatinga,Tabatinga,-13.96639,-38.93469,P,PPL,BR,,5.0,2920700.0,,,0,,10,America/Bahia,2014-10-22,,,,,,,,,,,,,,,,,,,,,,,,,,,,,,,,,,,,,,,,,,,,,,,,,,,,,,,,,,,,,,,,,,,
29259,3447235,Ilha Sumítica,Ilha Sumitica,-23.82728,-45.15415,T,ISL,BR,,27.0,3520400.0,,,0,,44,America/Sao_Paulo,2014-04-08,Ilha Sumitica,Ilha Sumítica,,,,,,,,,,,,,,,,,,,,,,,,,,,,,,,,,,,,,,,,,,,,,,,,,,,,,,,,,,,,,,,,,
29285,3447261,Banco Sulphur,Banco Sulphur,-17.01667,-37.5,H,BNK,BR,,5.0,,,,0,,-9999,America/Noronha,1993-12-17,,,,,,,,,,,,,,,,,,,,,,,,,,,,,,,,,,,,,,,,,,,,,,,,,,,,,,,,,,,,,,,,,,,
29292,3447268,Praia do Sul,Praia do Sul,-23.17748,-44.3,T,BCH,BR,,21.0,,,,0,,-9999,America/Sao_Paulo,2022-11-11,Praia do Sul,,,,,,,,,,,,,,,,,,,,,,,,,,,,,,,,,,,,,,,,,,,,,,,,,,,,,,,,,,,,,,,,,,
29294,3447270,Ponta Sul,Ponta Sul,-23.8,-45.13333,T,PT,BR,,27.0,,,,0,,123,America/Sao_Paulo,2013-03-05,Ponta Sul,,,,,,,,,,,,,,,,,,,,,,,,,,,,,,,,,,,,,,,,,,,,,,,,,,,,,,,,,,,,,,,,,,
29295,3447271,Ilhote do Sul,Ilhote do Sul,-23.56667,-45.08333,T,ISL,BR,,27.0,,,,0,,-9999,America/Sao_Paulo,2013-03-05,Ilhote do Sul,,,,,,,,,,,,,,,,,,,,,,,,,,,,,,,,,,,,,,,,,,,,,,,,,,,,,,,,,,,,,,,,,,
29296,3447272,Ilha do Sul,Ilha do Sul,-20.49607,-28.84905,T,ISL,BR,,8.0,,,,0,,0,America/Noronha,2017-12-26,,,,,,,,,,,,,,,,,,,,,,,,,,,,,,,,,,,,,,,,,,,,,,,,,,,,,,,,,,,,,,,,,,,
29298,3447274,Coroa Sul,Coroa Sul,-17.75,-39.16667,H,RF,BR,,5.0,,,,0,,-9999,America/Bahia,2012-12-05,Coroa Sul,,,,,,,,,,,,,,,,,,,,,,,,,,,,,,,,,,,,,,,,,,,,,,,,,,,,,,,,,,,,,,,,,,
29318,3447294,Ilha Sueste,Ilha Sueste,-17.98045,-38.6991,T,ISL,BR,,5.0,,,,0,,10,America/Bahia,2017-12-05,,,,,,,,,,,,,,,,,,,,,,,,,,,,,,,,,,,,,,,,,,,,,,,,,,,,,,,,,,,,,,,,,,,
29319,3447295,Canal Sueste,Canal Sueste,-17.86667,-39.08333,H,CHNM,BR,,5.0,,,,0,,-9999,America/Bahia,2012-01-19,Canal Southeast,Canal Sueste,,,,,,,,,,,,,,,,,,,,,,,,,,,,,,,,,,,,,,,,,,,,,,,,,,,,,,,,,,,,,,,,,
29419,3447395,Recifes do Sororocuçu,Recifes do Sororocucu,-13.83333,-38.93333,H,RF,BR,,5.0,,,,0,,1,America/Bahia,1993-12-17,,,,,,,,,,,,,,,,,,,,,,,,,,,,,,,,,,,,,,,,,,,,,,,,,,,,,,,,,,,,,,,,,,,
29455,3447431,Riacho Soé,Riacho Soe,-19.91667,-40.08333,H,STM,BR,,8.0,,,,0,,-9999,America/Sao_Paulo,2012-12-05,Riacho Soe,Riacho Soé,,,,,,,,,,,,,,,,,,,,,,,,,,,,,,,,,,,,,,,,,,,,,,,,,,,,,,,,,,,,,,,,,
29463,3447439,Ilha do Socó,Ilha do Soco,-20.28438,-40.28545,T,ISL,BR,,8.0,,,,0,,-9999,America/Sao_Paulo,2018-11-29,Ilha do Soco,Ilha do Socó,,,,,,,,,,,,,,,,,,,,,,,,,,,,,,,,,,,,,,,,,,,,,,,,,,,,,,,,,,,,,,,,,
29528,3447504,Enseada do Sítio Forte,Enseada do Sitio Forte,-23.12479,-44.28677,H,COVE,BR,,21.0,,,,0,,-9999,America/Sao_Paulo,2022-11-11,Enseada de Sitio Forte,Enseada de Sítio Forte,Enseada do Sitio Forte,Enseada do Sítio Forte,,,,,,,,,,,,,,,,,,,,,,,,,,,,,,,,,,,,,,,,,,,,,,,,,,,,,,,,,,,,,,,
29588,3447564,Morro do Simão,Morro do Simao,-23.9,-45.43333,T,MT,BR,,27.0,3520400.0,,,0,,881,America/Sao_Paulo,2013-03-05,Morro do Simao,Morro do Simão,,,,,,,,,,,,,,,,,,,,,,,,,,,,,,,,,,,,,,,,,,,,,,,,,,,,,,,,,,,,,,,,,
29679,3447655,Rio Sertão,Rio Sertao,-29.78333,-49.71667,H,STM,BR,,0.0,,,,0,,-9999,America/Sao_Paulo,1993-12-17,,,,,,,,,,,,,,,,,,,,,,,,,,,,,,,,,,,,,,,,,,,,,,,,,,,,,,,,,,,,,,,,,,,
29721,3447697,Ilha da Serraria,Ilha da Serraria,-23.81267,-45.22728,T,ISL,BR,,27.0,3520400.0,,,0,,32,America/Sao_Paulo,2014-04-08,Ilha da Serraria,,,,,,,,,,,,,,,,,,,,,,,,,,,,,,,,,,,,,,,,,,,,,,,,,,,,,,,,,,,,,,,,,,
29745,3447722,Ponta da Serra Grande,Ponta da Serra Grande,-14.48333,-39.01667,T,PT,BR,,5.0,,,,0,,-9999,America/Bahia,2018-12-05,Ponta da Serra Grande,,,,,,,,,,,,,,,,,,,,,,,,,,,,,,,,,,,,,,,,,,,,,,,,,,,,,,,,,,,,,,,,,,
29832,3447810,Ponta da Sereia,Ponta da Sereia,-20.33424,-40.2731,T,PT,BR,,8.0,3205200.0,,,0,,-9999,America/Sao_Paulo,2018-11-29,Ponta da Sereia,,,,,,,,,,,,,,,,,,,,,,,,,,,,,,,,,,,,,,,,,,,,,,,,,,,,,,,,,,,,,,,,,,
29837,3447815,Recife da Sequaratiba,Recife da Sequaratiba,-16.21667,-38.95,H,RF,BR,,5.0,,,,0,,-9999,America/Bahia,2012-12-05,Recife da Sequaratiba,,,,,,,,,,,,,,,,,,,,,,,,,,,,,,,,,,,,,,,,,,,,,,,,,,,,,,,,,,,,,,,,,,
29838,3447816,Ilha do Seputá,Ilha do Seputa,-20.1,-58.06667,T,ISL,BR,,11.0,,,,0,,82,America/Campo_Grande,2018-12-05,Ilha do Seputa,Ilha do Seputá,,,,,,,,,,,,,,,,,,,,,,,,,,,,,,,,,,,,,,,,,,,,,,,,,,,,,,,,,,,,,,,,,
29849,3447827,Ponta de Sepituba,Ponta de Sepituba,-23.95,-45.41667,T,PT,BR,,27.0,,,,0,,-9999,America/Sao_Paulo,2012-01-19,Ponta de Sepituba,Ponta de Sepituva,,,,,,,,,,,,,,,,,,,,,,,,,,,,,,,,,,,,,,,,,,,,,,,,,,,,,,,,,,,,,,,,,
29851,3447829,Baía de Sepetiba,Baia de Sepetiba,-22.97749,-43.83436,H,BAY,BR,,21.0,,,,0,,-9999,America/Sao_Paulo,2018-11-06,Baia de Sepetiba,Baía de Sepetiba,,,,,,,,,,,,,,,,,,,,,,,,,,,,,,,,,,,,,,,,,,,,,,,,,,,,,,,,,,,,,,,,,
29853,3447831,Rio Separação,Rio Separacao,-26.41667,-53.7,H,STM,BR,,26.0,,,,0,,478,America/Sao_Paulo,1993-12-17,,,,,,,,,,,,,,,,,,,,,,,,,,,,,,,,,,,,,,,,,,,,,,,,,,,,,,,,,,,,,,,,,,,
29892,3447870,Ponta da Sela,Ponta da Sela,-23.9,-45.45,T,PT,BR,,27.0,3520400.0,,,0,,192,America/Sao_Paulo,2012-08-03,Ponta Selado,Ponta da Sela,Punta da Sella,,,,,,,,,,,,,,,,,,,,,,,,,,,,,,,,,,,,,,,,,,,,,,,,,,,,,,,,,,,,,,,,
29927,3447905,Ilha Seca,Ilha Seca,-22.83729,-43.17486,T,ISL,BR,,21.0,,,,0,,0,America/Sao_Paulo,2019-02-21,Ilha Seca,Ilha Secca,Ilha Seoa,Ilha Sêca,,,,,,,,,,,,,,,,,,,,,,,,,,,,,,,,,,,,,,,,,,,,,,,,,,,,,,,,,,,,,,,
29928,3447906,Barra Sêca,Barra Seca,-19.16667,-39.65,H,INLT,BR,,8.0,,,,0,,-9999,America/Bahia,2012-12-05,Barra Seca,Barra Sêca,,,,,,,,,,,,,,,,,,,,,,,,,,,,,,,,,,,,,,,,,,,,,,,,,,,,,,,,,,,,,,,,,
29937,3447915,Recifes Sebastião Gomes,Recifes Sebastiao Gomes,-17.91308,-39.12746,H,RF,BR,,5.0,,,,0,,-9999,America/Bahia,2014-04-09,Recifes Sebastiao Gomes,Recifes Sebastião Gomes,,,,,,,,,,,,,,,,,,,,,,,,,,,,,,,,,,,,,,,,,,,,,,,,,,,,,,,,,,,,,,,,,
29995,3447973,Sarita,Sarita,-32.63333,-52.41667,S,LTHSE,BR,,23.0,,,,0,,-9999,America/Sao_Paulo,1993-12-17,,,,,,,,,,,,,,,,,,,,,,,,,,,,,,,,,,,,,,,,,,,,,,,,,,,,,,,,,,,,,,,,,,,
